COD_STRUTTURA_OD,COD_STRUTTURA,COD_REGIONE,COD_ASL,STRUTTURA,PARTITA_IVA,SITO_WEB,E_MAIL,COD_COMUNE,COMUNE,INDIRIZZO,CAP,TELEFONO,FAX,COD_TIPO_ASSISTENZA,ASSISTENZA,COD_TIPO_RAPPORTO,TIPO_RAPPORTO,TIPO_STRUTTURA,LATITUDINE_P,LONGITUDINE_P,LATITUDINE_V,LONGITUDINE_V
STR042101010101S01,10101,42,101,PRESIDIO OSPEDALIERO DI CAVALESE,1429410226.0,www.apss.tn.it,pierantonio.scappini@apss.tn.it,22050,CAVALESE,VIA DOSSI  17,38033,462341045,0462242114,S01,ATTIVITA` CLINICA,1,STRUTTURA DIRETTAMENTE GESTITA,AMBULATORIO E LABORATORIO,46.2884,11.4551,46.2884,11.4551
STR042101010101S02,10101,42,101,PRESIDIO OSPEDALIERO DI CAVALESE,1429410226.0,www.apss.tn.it,pierantonio.scappini@apss.tn.it,22050,CAVALESE,VIA DOSSI  17,38033,462341045,0462242114,S02,DIAGNOSTICA STRUMENTALE E PER IMMAGINI,1,STRUTTURA DIRETTAMENTE GESTITA,AMBULATORIO E LABORATORIO,46.2884,11.4551,46.2884,11.4551
STR042101010101S03,10101,42,101,PRESIDIO OSPEDALIERO DI CAVALESE,1429410226.0,www.apss.tn.it,pierantonio.scappini@apss.tn.it,22050,CAVALESE,VIA DOSSI  17,38033,462341045,0462242114,S03,ATTIVITA` DI LABORATORIO,1,STRUTTURA DIRETTAMENTE GESTITA,AMBULATORIO E LABORATORIO,46.2884,11.4551,46.2884,11.4551
STR042101010102S05,10102,42,101,CENTRO SALUTE MENTALE CAVALESE,1429410226.0,www.apss.tn.it,psichiatriapergine@apss.tn.it,22050,CAVALESE,VIA ROMA  4,38033,462242364,0462242385,S05,ASSISTENZA PSICHIATRICA,1,STRUTTURA DIRETTAMENTE GESTITA,ALTRO TIPO DI STRUTTURA TERRITORIALE,46.29017,11.463946,46.29017,11.463946
STR042101010103S01,10103,42,101,CENTRO DIALISI CAVALESE,1429410226.0,www.apss.tn.it,Carlo.Rovati@apss.tn.it,22050,CAVALESE,VIA DOSSI  17,38033,462242109,0462242143,S01,ATTIVITA` CLINICA,1,STRUTTURA DIRETTAMENTE GESTITA,ALTRO TIPO DI STRUTTURA TERRITORIALE,46.2884,11.4551,46.2884,11.4551
STR042101010105S04,10105,42,101,CONSULTORIO CAVALESE,1429410226.0, ,irene.decrestina@apss.tn.it,22050,CAVALESE,VIA ROMA  4,38033,462242360,0462242369,S04,ATTIVITA` DI CONSULTORIO MATERNO-INFANTILE,1,STRUTTURA DIRETTAMENTE GESTITA,ALTRO TIPO DI STRUTTURA TERRITORIALE,46.29017,11.463946,46.29017,11.463946
STR042101010401S09,10401,42,101,AZIENDA PUBBLICA SERVIZI ALLA PERSONA -  RSA PREDAZZO,1065140228.0,www.upipa.tn.it,upipa.predazzo@mail.infotn.it,22147,PREDAZZO,VIA E SOTTSASS  11,38037,462501235,0462502775,S09,ASSISTENZA AGLI ANZIANI,2,STRUTTURA NON DIRETTAMENTE GESTITA,STRUTTURA RESIDENZIALE,46.313561,11.601377,46.313561,11.601377
STR042101010501S01,10501,42,101,POLIAMBULATORIO DI PREDAZZO,1429410226.0,www.apss.tn.it, ,22147,PREDAZZO,VIA DEGASPERI  12,38037,462508800, ,S01,ATTIVITA` CLINICA,1,STRUTTURA DIRETTAMENTE GESTITA,AMBULATORIO E LABORATORIO,46.311858,11.599532,46.311858,11.599532
STR042101010501S02,10501,42,101,POLIAMBULATORIO DI PREDAZZO,1429410226.0,www.apss.tn.it, ,22147,PREDAZZO,VIA DEGASPERI  12,38037,462508800, ,S02,DIAGNOSTICA STRUMENTALE E PER IMMAGINI,1,STRUTTURA DIRETTAMENTE GESTITA,AMBULATORIO E LABORATORIO,46.311858,11.599532,46.311858,11.599532
STR042101010601S09,10601,42,101,AZIENDA PUBBLICA SERVIZI ALLA PERSONA - RSA TESERO,459310223.0,www.casadiriposogiovanelli.org,upipa.tesero@mail.infotn.it,22196,TESERO,VIA GIOVANELLI  12,38038,462813027,0462813027,S09,ASSISTENZA AGLI ANZIANI,2,STRUTTURA NON DIRETTAMENTE GESTITA,STRUTTURA RESIDENZIALE,46.28919,11.510085,46.28919,11.510085
STR042101020101S01,20101,42,101,POLIAMBULATORIO TONADICO,1429410226.0,www.apss.tn.it, ,22245,PRIMIERO SAN MARTINO DI CASTROZZA,VIA ROMA  1,38054,439764444,0439764413,S01,ATTIVITA` CLINICA,1,STRUTTURA DIRETTAMENTE GESTITA,AMBULATORIO E LABORATORIO,46.177751,11.831519,46.177751,11.831519
STR042101020101S02,20101,42,101,POLIAMBULATORIO TONADICO,1429410226.0,www.apss.tn.it, ,22245,PRIMIERO SAN MARTINO DI CASTROZZA,VIA ROMA  1,38054,439764444,0439764413,S02,DIAGNOSTICA STRUMENTALE E PER IMMAGINI,1,STRUTTURA DIRETTAMENTE GESTITA,AMBULATORIO E LABORATORIO,46.177751,11.831519,46.177751,11.831519
STR042101020102S04,20102,42,101,CONSULTORIO  PRIMIERO,1429410226.0,www.apss.tn.it,consultorio.familiare.tonadico@apss.tn.it,22245,PRIMIERO SAN MARTINO DI CASTROZZA,VIA ROMA  1,38054,439764480,0439764413,S04,ATTIVITA` DI CONSULTORIO MATERNO-INFANTILE,1,STRUTTURA DIRETTAMENTE GESTITA,ALTRO TIPO DI STRUTTURA TERRITORIALE,46.177751,11.831519,46.177751,11.831519
STR042101020301S09,20301,42,101,AZIENDA PUBBLICA SERVIZI ALLA PERSONA - RSA CANAL S.BOVO,481180222.0,www.apspvalledelvanoi.it,info@apspvalledelvanoi.it,22038,CANAL SAN BOVO,VIA DANOLI  15,38050,439719009,0439719448,S09,ASSISTENZA AGLI ANZIANI,2,STRUTTURA NON DIRETTAMENTE GESTITA,STRUTTURA RESIDENZIALE,46.155424,11.734069,46.155424,11.734069
STR042101020401S09,20401,42,101,AZIENDA PUBBLICA SERVIZI ALLA PERSONA - RSA TRANSACQUA,374850220.0,www.apsp-primiero.net,segreteria@apsp-primiero.net,22245,PRIMIERO SAN MARTINO DI CASTROZZA,VIALE MARCONI  19,38054,43962371,0439765406,S09,ASSISTENZA AGLI ANZIANI,2,STRUTTURA NON DIRETTAMENTE GESTITA,STRUTTURA RESIDENZIALE,46.175432,11.824865,46.175432,11.824865
STR042101030101S01,30101,42,101,PRESIDIO OSPEDALIERO DI BORGO VALSUGANA,1429410226.0,www.apss.tn.it,ariella.zilli@apss.tn.it,22022,BORGO VALSUGANA,VIALE VICENZA  9,38051,461755217,0461755117,S01,ATTIVITA` CLINICA,1,STRUTTURA DIRETTAMENTE GESTITA,AMBULATORIO E LABORATORIO,46.0568,11.4646,46.0568,11.4646
STR042101030101S02,30101,42,101,PRESIDIO OSPEDALIERO DI BORGO VALSUGANA,1429410226.0,www.apss.tn.it,ariella.zilli@apss.tn.it,22022,BORGO VALSUGANA,VIALE VICENZA  9,38051,461755217,0461755117,S02,DIAGNOSTICA STRUMENTALE E PER IMMAGINI,1,STRUTTURA DIRETTAMENTE GESTITA,AMBULATORIO E LABORATORIO,46.0568,11.4646,46.0568,11.4646
STR042101030101S03,30101,42,101,PRESIDIO OSPEDALIERO DI BORGO VALSUGANA,1429410226.0,www.apss.tn.it,ariella.zilli@apss.tn.it,22022,BORGO VALSUGANA,VIALE VICENZA  9,38051,461755217,0461755117,S03,ATTIVITA` DI LABORATORIO,1,STRUTTURA DIRETTAMENTE GESTITA,AMBULATORIO E LABORATORIO,46.0568,11.4646,46.0568,11.4646
STR042101030102S01,30102,42,101,CENTRO DIALISI BORGO,1429410226.0,www.apss.tn.it, ,22022,BORGO VALSUGANA,VIA VICENZA  9,38051,461755264, ,S01,ATTIVITA` CLINICA,1,STRUTTURA DIRETTAMENTE GESTITA,ALTRO TIPO DI STRUTTURA TERRITORIALE,46.0568,11.4646,46.0568,11.4646
STR042101030401S04,30401,42,101,CONSULTORIO  BORGO,1429410226.0,www.apss.tn.it,consultoriofamiliareborgo@apss.tn.it,22022,BORGO VALSUGANA,VIALE VICENZA  9,38051,461755650,0461755658,S04,ATTIVITA` DI CONSULTORIO MATERNO-INFANTILE,1,STRUTTURA DIRETTAMENTE GESTITA,ALTRO TIPO DI STRUTTURA TERRITORIALE,46.054643,11.46004,46.054643,11.46004
STR042101030402S05,30402,42,101,CENTRO SALUTE MENTALE BORGO E TONADICO,1429410226.0,www.apss.tn.it,psichiatriapergine@apss.tn.it,22022,BORGO VALSUGANA,VIALE VICENZA  9,38051,461755208,0461755206,S05,ASSISTENZA PSICHIATRICA,1,STRUTTURA DIRETTAMENTE GESTITA,ALTRO TIPO DI STRUTTURA TERRITORIALE,46.0568,11.4646,46.0568,11.4646
STR042101030403S05,30403,42,101,CENTRO DIURNO PSICHIATRICO BORGO/TONADICO,1429410226.0,www.apss.tn.it,psichiatriapergine@apss.tn.it,22022,BORGO VALSUGANA,VIALE VICENZA  9,38051,461755208,0461755206,S05,ASSISTENZA PSICHIATRICA,1,STRUTTURA DIRETTAMENTE GESTITA,STRUTTURA SEMIRESIDENZIALE,46.0568,11.4646,46.0568,11.4646
STR042101030404S05,30404,42,101,CENTRO SALUTE MENTALE BORGO E TONADICO - AMB. TONADICO,1429410226.0, ,psichiatriapergine@apss.tn.it,22245,PRIMIERO SAN MARTINO DI CASTROZZA,VIA ROMA  1,38054,439764453,0439764454,S05,ASSISTENZA PSICHIATRICA,1,STRUTTURA DIRETTAMENTE GESTITA,ALTRO TIPO DI STRUTTURA TERRITORIALE,46.177751,11.831519,46.177751,11.831519
STR042101030405S09,30405,42,101,CENTRO DIURNO PER ANZIANI - SCURELLE,988390225.0, ,info@apspborgo.it,22171,SCURELLE,VIA XV AGOSTO  48,38050,461754123,0461752909,S09,ASSISTENZA AGLI ANZIANI,2,STRUTTURA NON DIRETTAMENTE GESTITA,STRUTTURA SEMIRESIDENZIALE,46.0639666,11.5127521,46.0639666,11.5127521
STR042101032001S09,32001,42,101,AZIENDA PUBBLICA SERVIZI ALLA PERSONA - RSA CASTELLO TESINO,1025950229.0,www.apspsuoragnese.it,info@apspsuoragnese.it,22048,CASTELLO TESINO,V OSPEDALE 12,38053,461594166,0461592959,S09,ASSISTENZA AGLI ANZIANI,2,STRUTTURA NON DIRETTAMENTE GESTITA,STRUTTURA RESIDENZIALE,46.064522,11.633137,46.064522,11.633137
STR042101032002S09,32002,42,101,CENTRO DIURNO PER ANZIANI - CASTELLO TESINO,1025950229.0, ,upipa.castellotesino@mail.infotn.it,22048,CASTELLO TESINO,VIA F LLI BALLERIN  1,38051,461594166,0461592959,S09,ASSISTENZA AGLI ANZIANI,2,STRUTTURA NON DIRETTAMENTE GESTITA,STRUTTURA SEMIRESIDENZIALE,46.061351,11.632966,46.061351,11.632966
STR042101032003S11,32003,42,101,COMUNITA' RESIDENZIALE TEMPORANEA MASO TOFFA,1848220222.0,www.oltre.coop,masotoffa@oltre.coop,22041,CARANO,LOCALITA  CELA  16,38033,462235298,0462235298,S11,ASSISTENZA AI DISABILI PSICHICI,2,STRUTTURA NON DIRETTAMENTE GESTITA,STRUTTURA RESIDENZIALE,46.293533,11.417995,46.293533,11.417995
STR042101032101S09,32101,42,101,AZIENDA PUBBLICA SERVIZI ALLA PERSONA - RSA PIEVE TESINO,1007740226.0,www.piccolospedale.it,upipa.pievetesino@mail.infotn.it,22142,PIEVE TESINO,VIA BATTAGLION FELTRE  19,38050,461594179,0461592034,S09,ASSISTENZA AGLI ANZIANI,2,STRUTTURA NON DIRETTAMENTE GESTITA,STRUTTURA RESIDENZIALE,46.065043,11.633105,46.065043,11.633105
STR042101032201S09,32201,42,101,AZIENDA PUBBLICA SERVIZI ALLA PERSONA - RSA STRIGNO,1008300228.0,www.apspstrigno.it,segreteria@apspstrigno.it,22240,CASTEL IVANO,VIA BORGO ALLOCCO  2,38059,461762009,0461781199,S09,ASSISTENZA AGLI ANZIANI,2,STRUTTURA NON DIRETTAMENTE GESTITA,STRUTTURA RESIDENZIALE,46.06942,11.525145,46.06942,11.525145
STR042101032301S09,32301,42,101,AZIENDA PUBBLICA SERVIZI ALLA PERSONA - RSA RONCEGNO,989210224.0,www.upipa.tn.it,upipa.roncegno@mail.infotn.it,22156,RONCEGNO TERME,VIA ALLE FONTI 1,38050,461764607,0461764323,S09,ASSISTENZA AGLI ANZIANI,2,STRUTTURA NON DIRETTAMENTE GESTITA,STRUTTURA RESIDENZIALE,46.05322,11.406355,46.05322,11.406355
STR042101032401S09,32401,42,101,AZIENDA PUBBLICA SERVIZI ALLA PERSONA - RSA BORGO VALSUGANA,988390225.0,www.apspborgo.it,info@apspborgo.it,22022,BORGO VALSUGANA,VIA PER TELVE  7,38051,461754123,0461752909,S09,ASSISTENZA AGLI ANZIANI,2,STRUTTURA NON DIRETTAMENTE GESTITA,STRUTTURA RESIDENZIALE,46.058153,11.468989,46.058153,11.468989
STR042101032501S09,32501,42,101,AZIENDA PUBBLICA SERVIZI ALLA PERSONA - RSA GRIGNO,1584010225.0,www.apspgrigno.it,info@apspgrigno.it,22095,GRIGNO,VIA VITTORIO EMANUELE  131,38055,461765118,0461765108,S09,ASSISTENZA AGLI ANZIANI,2,STRUTTURA NON DIRETTAMENTE GESTITA,STRUTTURA RESIDENZIALE,46.016024,11.633234,46.016024,11.633234
STR042101040101S01,40101,42,101,POLIAMBULATORIO DI PERGINE,1429410226.0,www.apss.tn.it,marina.lazzeri@apss.tn.it,22139,PERGINE VALSUGANA,VIA S PIETRO  2,38057,461515111,0461515198,S01,ATTIVITA` CLINICA,1,STRUTTURA DIRETTAMENTE GESTITA,AMBULATORIO E LABORATORIO,46.0633,11.2449,46.0633,11.2449
STR042101040101S02,40101,42,101,POLIAMBULATORIO DI PERGINE,1429410226.0,www.apss.tn.it,marina.lazzeri@apss.tn.it,22139,PERGINE VALSUGANA,VIA S PIETRO  2,38057,461515111,0461515198,S02,DIAGNOSTICA STRUMENTALE E PER IMMAGINI,1,STRUTTURA DIRETTAMENTE GESTITA,AMBULATORIO E LABORATORIO,46.0633,11.2449,46.0633,11.2449
STR042101040101S03,40101,42,101,POLIAMBULATORIO DI PERGINE,1429410226.0,www.apss.tn.it,marina.lazzeri@apss.tn.it,22139,PERGINE VALSUGANA,VIA S PIETRO  2,38057,461515111,0461515198,S03,ATTIVITA` DI LABORATORIO,1,STRUTTURA DIRETTAMENTE GESTITA,AMBULATORIO E LABORATORIO,46.0633,11.2449,46.0633,11.2449
STR042101040102S04,40102,42,101,CONSULTORIO  PERGINE,1429410226.0,www.apss.tn.it, ,22139,PERGINE VALSUGANA,VIA S  PIETRO  2,38057,461515367,0461515392,S04,ATTIVITA` DI CONSULTORIO MATERNO-INFANTILE,1,STRUTTURA DIRETTAMENTE GESTITA,ALTRO TIPO DI STRUTTURA TERRITORIALE,46.0633,11.2449,46.0633,11.2449
STR042101040103S05,40103,42,101,CENTRO SALUTE MENTALE PERGINE,1429410226.0,www.apss.tn.it,psichiatriapergine@apss.tn.it,22139,PERGINE VALSUGANA,VIA S  PIETRO  14,38057,461515466,0461515291,S05,ASSISTENZA PSICHIATRICA,1,STRUTTURA DIRETTAMENTE GESTITA,ALTRO TIPO DI STRUTTURA TERRITORIALE,46.0633,11.2449,46.0633,11.2449
STR042101040104S05,40104,42,101,APSS - RSA PSICHIATRICA,1429410226.0,www.apss.tn.it,psichiatriapergine@apss.tn.it,22139,PERGINE VALSUGANA,VIA S  PIETRO  2,38057,461515317,0461515319,S05,ASSISTENZA PSICHIATRICA,1,STRUTTURA DIRETTAMENTE GESTITA,STRUTTURA RESIDENZIALE,11.2449,46.0633,11.2449,46.0633
STR042101040104S09,40104,42,101,APSS - RSA PSICHIATRICA,1429410226.0,www.apss.tn.it,psichiatriapergine@apss.tn.it,22139,PERGINE VALSUGANA,VIA S  PIETRO  2,38057,461515317,0461515319,S09,ASSISTENZA AGLI ANZIANI,1,STRUTTURA DIRETTAMENTE GESTITA,STRUTTURA RESIDENZIALE,46.0633,11.2449,46.0633,11.2449
STR042101040104S11,40104,42,101,APSS - RSA PSICHIATRICA,1429410226.0,www.apss.tn.it,psichiatriapergine@apss.tn.it,22139,PERGINE VALSUGANA,VIA S  PIETRO  2,38057,461515317,0461515319,S11,ASSISTENZA AI DISABILI PSICHICI,1,STRUTTURA DIRETTAMENTE GESTITA,STRUTTURA RESIDENZIALE,46.0633,11.2449,46.0633,11.2449
STR042101040105S05,40105,42,101,CENTRO DIURNO PSICHIATRICO PERGINE,1429410226.0,www.apss.tn.it,psichiatriapergine@apss.tn.it,22139,PERGINE VALSUGANA,VIA SAN PIETRO 14,38057,461515466,0461515291,S05,ASSISTENZA PSICHIATRICA,1,STRUTTURA DIRETTAMENTE GESTITA,STRUTTURA SEMIRESIDENZIALE,46.0607017,11.2351627,46.0607017,11.2351627
STR042101040201S01,40201,42,101,PRESIDIO OSPEDALIERO VILLA ROSA,1429410226.0,www.apss.tn.it,villarosa@tn.apss.tn.it,22139,PERGINE VALSUGANA,VIA SPOLVERINE  84,38057,461501500,0461501580,S01,ATTIVITA` CLINICA,1,STRUTTURA DIRETTAMENTE GESTITA,AMBULATORIO E LABORATORIO,46.06526,11.249487,46.06526,11.249487
STR042101040301S01,40301,42,101,POLIAMBULATORIO DI LEVICO - TN,1429410226.0,www.apss.tn.it, ,22104,LEVICO TERME,VIA SLUCCA DE MATTEONI  10,38056,461727812,0461727834,S01,ATTIVITA` CLINICA,1,STRUTTURA DIRETTAMENTE GESTITA,AMBULATORIO E LABORATORIO,46.009549,11.303954,46.009549,11.303954
STR042101040401S08,40401,42,101,LEVICOFIN S.R.L.,1520320225.0,www.termedilevico.it,info@termedilevico.it,22104,LEVICO TERME,VIALE VITTORIO EMANUELE  10,38056,461706077,0461702359,S08,ASSISTENZA IDROTERMALE,2,STRUTTURA NON DIRETTAMENTE GESTITA,ALTRO TIPO DI STRUTTURA TERRITORIALE,46.014222,11.297645,46.014222,11.297645
STR042101040501S05,40501,42,101,RESIDENZA PSICHIATRICA PERUSINI,1429410226.0,www.apss.tn.it,psichiatriapergine@apss.tn.it,22139,PERGINE VALSUGANA,VIA SAN PIETRO  2,38057,461515313,0461515318,S05,ASSISTENZA PSICHIATRICA,1,STRUTTURA DIRETTAMENTE GESTITA,STRUTTURA RESIDENZIALE,46.0517181,11.2189907,46.0517181,11.2189907
STR042101040502S05,40502,42,101,RESIDENZE PSICHIATRICHE,1429410226.0,www.apss.tn.it,psichiatriapergine@apss.tn.it,22139,PERGINE VALSUGANA,VIA SAN PIETRO,38057,461515317,0461515317,S05,ASSISTENZA PSICHIATRICA,1,STRUTTURA DIRETTAMENTE GESTITA,STRUTTURA RESIDENZIALE,11.2449,46.0633,11.2449,46.0633
STR042101040502S11,40502,42,101,RESIDENZE PSICHIATRICHE,1429410226.0,www.apss.tn.it,psichiatriapergine@apss.tn.it,22139,PERGINE VALSUGANA,VIA SAN PIETRO,38057,461515317,0461515317,S11,ASSISTENZA AI DISABILI PSICHICI,1,STRUTTURA DIRETTAMENTE GESTITA,STRUTTURA RESIDENZIALE,11.2449,46.0633,11.2449,46.0633
STR042101040503S05,40503,42,101,RESIDENZA PSICHIATRICA LEVICO - I RODODENDRI,1429410226.0,www.apss.tn.it,psichiatriapergine@apss.tn.it,22104,LEVICO TERME,VIA SLUCCA DE MATTEONI  10,38056,461727832,0461727844,S05,ASSISTENZA PSICHIATRICA,1,STRUTTURA DIRETTAMENTE GESTITA,STRUTTURA RESIDENZIALE,46.009549,11.303954,46.009549,11.303954
STR042101040504S05,40504,42,101,RESIDENZA PER L'ESECUZIONE DELLE MISURE DI SICUREZZA - REMS PERGINE,1429410226.0,www.apss.tn.it,psichiatriapergine@apss.tn.it,22139,PERGINE VALSUGANA,VIA SAN PIETRO  2,38057,461515138,0461515137,S05,ASSISTENZA PSICHIATRICA,1,STRUTTURA DIRETTAMENTE GESTITA,STRUTTURA RESIDENZIALE,11.2449,46.0633,11.2449,46.0633
STR042101041201S09,41201,42,101,AZIENDA PUBBLICA SERVIZI ALLA PERSONA - RSA PERGINE,358720225.0,www.apsp-pergine.it,amministrazione@apsp-pergine.it,22139,PERGINE VALSUGANA,VIA MARCONI  4,38057,461706434,0461706232,S09,ASSISTENZA AGLI ANZIANI,2,STRUTTURA NON DIRETTAMENTE GESTITA,STRUTTURA RESIDENZIALE,46.063539,11.243005,46.063539,11.243005
STR042101041202S01,41202,42,101,AZIENDA PUBBLICA SERVIZI ALLA PERSONA - RSA PERGINE - AMB. FKT,358720225.0, ,amministrazione@casariposopergine.it,22139,PERGINE VALSUGANA,VIA PIVE  7,38057,461531002,0461532971,S01,ATTIVITA` CLINICA,2,STRUTTURA NON DIRETTAMENTE GESTITA,AMBULATORIO E LABORATORIO,46.063539,11.243005,46.063539,11.243005
STR042101041204S09,41204,42,101,CENTRO DIURNO PER ANZIANI - PERGINE,358720225.0, ,amministrazione@apsp-pergine.it,22139,PERGINE VALSUGANA,VIA MARCONI  4,38057,461531002,0461532971,S09,ASSISTENZA AGLI ANZIANI,2,STRUTTURA NON DIRETTAMENTE GESTITA,STRUTTURA SEMIRESIDENZIALE,46.064968,11.2429,46.064968,11.2429
STR042101041205S09,41205,42,101,CENTRO DIURNO PRESA IN CARICO DEMENZE APSP,358720225.0,www.apsp-pergine.it,amministrazione@apsp-pergine.it,22139,PERGINE VALSUGANA,VIA MARCONI  4,38057,461531002,0461532971,S09,ASSISTENZA AGLI ANZIANI,2,STRUTTURA NON DIRETTAMENTE GESTITA,STRUTTURA SEMIRESIDENZIALE,11.2429,46.064968,11.2429,46.064968
STR042101041301S09,41301,42,101,AZIENDA PUBBLICA SERVIZI ALLA PERSONA - RSA LEVICO TERME,619100225.0,www.apsplevicoterme.it,segreteria@apsplevicoterme.it,22104,LEVICO TERME,VIA C CAVOUR  65,38056,461706225,0461706232,S09,ASSISTENZA AGLI ANZIANI,2,STRUTTURA NON DIRETTAMENTE GESTITA,STRUTTURA RESIDENZIALE,46.009411,11.302842,46.009411,11.302842
STR042101041304S09,41304,42,101,CENTRO DIURNO PER ANZIANI - LEVICO TERME,619100225.0, ,segreteria@apsplevicoterme.it,22104,LEVICO TERME,VIA CASOTTE  2,38056,461706464,0461706232,S09,ASSISTENZA AGLI ANZIANI,2,STRUTTURA NON DIRETTAMENTE GESTITA,STRUTTURA SEMIRESIDENZIALE,46.009267,11.302676,46.009267,11.302676
STR042101041305S10,41305,42,101,CENTRO DON ZIGLIO -CENTRO RESIDENZIALE DISABILI - LEVICO TERME,272610221.0,www.centrodonziglio.it,info@centrodonziglio.it,22104,LEVICO TERME,VIA SILVA DOMINI  37,38056,461706055,0461702007,S10,ASSISTENZA AI DISABILI FISICI,2,STRUTTURA NON DIRETTAMENTE GESTITA,STRUTTURA RESIDENZIALE,46.012926,11.30383,46.012926,11.30383
STR042101041401S09,41401,42,101,RSA - SPES VILLA ALPINA - BASELGA DI PINE',251510228.0,www.gruppospes.it,villaalpina@gruppospes.it,22009,BASELGA DI PINÈ,VIA IV NOVEMBRE  29 MONTAGNAGA,38042,461559500,0461559599,S09,ASSISTENZA AGLI ANZIANI,2,STRUTTURA NON DIRETTAMENTE GESTITA,STRUTTURA RESIDENZIALE,46.103828,11.237955,46.103828,11.237955
STR042101041501S11,41501,42,101,COMUNITA' RESIDENZIALE TEMPORANEA PICCOLO PRINCIPE,1186250229.0, ,principeprimiero@gmail.com,22245,PRIMIERO SAN MARTINO DI CASTROZZA,VIA MARCONI  7   PIEVE,38054,43964672,043964672,S11,ASSISTENZA AI DISABILI PSICHICI,2,STRUTTURA NON DIRETTAMENTE GESTITA,STRUTTURA RESIDENZIALE,46.173383,11.825447,46.173383,11.825447
STR042101041601S09,41601,42,101,CASA SANTA MARIA - COOP. KALEIDOSCOPIO SCS,1522650223.0,www.casasantamaria.trentino.it,info@casasantamaria.trentino.it,22236,ALTOPIANO DELLA VIGOLANA,VIA AL CASTELLO  39,38049,461848568,0461819434,S09,ASSISTENZA AGLI ANZIANI,2,STRUTTURA NON DIRETTAMENTE GESTITA,STRUTTURA RESIDENZIALE,46.005528,11.20397,46.005528,11.20397
STR042101050101S01,50101,42,101,PRESIDIO OSPEDALIERO S.CHIARA,1429410226.0,www.apss.tn.it, ,22205,TRENTO,LARGO MEDAGLIE D'ORO  1,38122,461903111,0461903574,S01,ATTIVITA` CLINICA,1,STRUTTURA DIRETTAMENTE GESTITA,AMBULATORIO E LABORATORIO,46.0564,11.1342,46.0564,11.1342
STR042101050101S02,50101,42,101,PRESIDIO OSPEDALIERO S.CHIARA,1429410226.0,www.apss.tn.it, ,22205,TRENTO,LARGO MEDAGLIE D'ORO  1,38122,461903111,0461903574,S02,DIAGNOSTICA STRUMENTALE E PER IMMAGINI,1,STRUTTURA DIRETTAMENTE GESTITA,AMBULATORIO E LABORATORIO,46.0564,11.1342,46.0564,11.1342
STR042101050101S03,50101,42,101,PRESIDIO OSPEDALIERO S.CHIARA,1429410226.0,www.apss.tn.it, ,22205,TRENTO,LARGO MEDAGLIE D'ORO  1,38122,461903111,0461903574,S03,ATTIVITA` DI LABORATORIO,1,STRUTTURA DIRETTAMENTE GESTITA,AMBULATORIO E LABORATORIO,46.0564,11.1342,46.0564,11.1342
STR042101050102S01,50102,42,101,CENTRO DIALISI TRENTO,1429410226.0,www.apss.tn.it, ,22205,TRENTO,LARGO MEDAGLIE D ORO  9,38122,461903104,0461903323,S01,ATTIVITA` CLINICA,1,STRUTTURA DIRETTAMENTE GESTITA,ALTRO TIPO DI STRUTTURA TERRITORIALE,46.0564,11.1342,46.0564,11.1342
STR042101050103S01,50103,42,101,POLIAMBULATORI S.CHIARA,1429410226.0,www.apss.tn.it, ,22205,TRENTO,VIA GOCCIADORO  82,38122,461903643, ,S01,ATTIVITA` CLINICA,1,STRUTTURA DIRETTAMENTE GESTITA,AMBULATORIO E LABORATORIO,46.05572,11.131942,46.05572,11.131942
STR042101050201S01,50201,42,101,PRESIDIO OSPEDALIERO VILLA IGEA,1429410226.0,www.apss.tn.it, ,22205,TRENTO,VIA MALTA  16,38122,461903111, ,S01,ATTIVITA` CLINICA,1,STRUTTURA DIRETTAMENTE GESTITA,AMBULATORIO E LABORATORIO,46.0617,11.1279,46.0617,11.1279
STR042101050400S12,50400,42,101,HOSPICE TRENTO VILLA IGEA,1429410226.0,www.apss.tn.it,CurePalliativeHospice@apss.tn.it,22205,TRENTO,VIA MALTA  16,38122,461611137,0461611133,S12,ASSISTENZA AI MALATI TERMINALI,1,STRUTTURA DIRETTAMENTE GESTITA,STRUTTURA RESIDENZIALE,46.0617,11.1279,46.0617,11.1279
STR042101050401S01,50401,42,101,PRESIDIO OSPEDALIERO S.GIOVANNI,1429410226.0,www.apss.tn.it, ,22117,MEZZOLOMBARDO,VIA DEGLI ALPINI  7,38017,461611111,0461611239,S01,ATTIVITA` CLINICA,1,STRUTTURA DIRETTAMENTE GESTITA,AMBULATORIO E LABORATORIO,46.2127,11.0958,46.2127,11.0958
STR042101050402S05,50402,42,101,CENTRO SALUTE MENTALE MEZZOCORONA,1429410226.0,www.apss.tn.it,angelo.mercurio@tn.apss.tn.it,22116,MEZZOCORONA,VIA CANE   13,38016,461604396,0461607440,S05,ASSISTENZA PSICHIATRICA,1,STRUTTURA DIRETTAMENTE GESTITA,ALTRO TIPO DI STRUTTURA TERRITORIALE,46.215351,11.121026,46.215351,11.121026
STR042101050403S05,50403,42,101,CENTRO DIURNO PSICHIATRICO MEZZOCORONA,1429410226.0,www.apss.tn.it,angelo.mercurio@tn.apss.tn.it,22116,MEZZOCORONA,VIA CANE   13,38016,461604396,0461607440,S05,ASSISTENZA PSICHIATRICA,1,STRUTTURA DIRETTAMENTE GESTITA,STRUTTURA SEMIRESIDENZIALE,46.215351,11.121026,46.215351,11.121026
STR042101050404S04,50404,42,101,CONSULTORIO MEZZOLOMBARDO,1429410226.0, , ,22117,MEZZOLOMBARDO,VIA DAMIANO CHIESA  6,38017,461611276, ,S04,ATTIVITA` DI CONSULTORIO MATERNO-INFANTILE,1,STRUTTURA DIRETTAMENTE GESTITA,ALTRO TIPO DI STRUTTURA TERRITORIALE,46.214023,11.096143,46.214023,11.096143
STR042101050406S01,50406,42,101,CENTRO SANITARIO TRENTINO,2129990228.0,www.centrosanitariotrentino.it,info@centrosanitariotrentino.it,22117,MEZZOLOMBARDO,VIA ALCIDE DEGASPERI  75,38017,461606145,0461607489,S01,ATTIVITA` CLINICA,2,STRUTTURA NON DIRETTAMENTE GESTITA,AMBULATORIO E LABORATORIO,46.210909,11.093893,46.210909,11.093893
STR042101050406S02,50406,42,101,CENTRO SANITARIO TRENTINO,2129990228.0,www.centrosanitariotrentino.it,info@centrosanitariotrentino.it,22117,MEZZOLOMBARDO,VIA ALCIDE DEGASPERI  75,38017,461606145,0461607489,S02,DIAGNOSTICA STRUMENTALE E PER IMMAGINI,2,STRUTTURA NON DIRETTAMENTE GESTITA,AMBULATORIO E LABORATORIO,46.21082,11.093741,46.21082,11.093741
STR042101050407S12,50407,42,101,FONDAZIONE HOSPICE TRENTINO ONLUS,2448380225.0, ,info@fondazionehospicetn.it,22205,TRENTO,VIA C  MENGUZZATO  48,38123,461239131, ,S12,ASSISTENZA AI MALATI TERMINALI,2,STRUTTURA NON DIRETTAMENTE GESTITA,STRUTTURA RESIDENZIALE,11.137198,46.038432,11.137198,46.038432
STR042101050501S01,50501,42,101,OSPEDALE  CLASSIFICATO S.CAMILLO,1008231001.0,www.sancamillo.com,direzione.tn@figliesancamillo.it,22205,TRENTO,VIA GIOVANELLI  19,38122,461216111,0461230334,S01,ATTIVITA` CLINICA,2,STRUTTURA NON DIRETTAMENTE GESTITA,AMBULATORIO E LABORATORIO,46.065474,11.131722,46.065474,11.131722
STR042101050501S02,50501,42,101,OSPEDALE  CLASSIFICATO S.CAMILLO,1008231001.0,www.sancamillo.com,direzione.tn@figliesancamillo.it,22205,TRENTO,VIA GIOVANELLI  19,38122,461216111,0461230334,S02,DIAGNOSTICA STRUMENTALE E PER IMMAGINI,2,STRUTTURA NON DIRETTAMENTE GESTITA,AMBULATORIO E LABORATORIO,46.065474,11.131722,46.065474,11.131722
STR042101050502S09,50502,42,101,RSAO S. CAMILLO,1008231001.0,www.sancamillo.com,direzione@sancamillo.com,22205,TRENTO,VIA GIOVANELLI  19,38122,461216111,0461230334,S09,ASSISTENZA AGLI ANZIANI,2,STRUTTURA NON DIRETTAMENTE GESTITA,STRUTTURA RESIDENZIALE,46.065474,11.131722,46.065474,11.131722
STR042101050801S04,50801,42,101,CONSULTORIO TRENTO,1429410226.0,www.apss.tn.it,consultorio.familiare.trento1@apss.tn.it,22205,TRENTO,VIA MALTA  12,38122,461902190,0461902199,S04,ATTIVITA` DI CONSULTORIO MATERNO-INFANTILE,1,STRUTTURA DIRETTAMENTE GESTITA,ALTRO TIPO DI STRUTTURA TERRITORIALE,46.061995,11.127296,46.061995,11.127296
STR042101050802S05,50802,42,101,CENTRO SALUTE MENTALE TRENTO,1429410226.0,www.apss.tn.it,francesca.munerati@apss.tn.it,22205,TRENTO,VIA SAN GIOVANNI BOSCO,38122,461902870,0461902874,S05,ASSISTENZA PSICHIATRICA,1,STRUTTURA DIRETTAMENTE GESTITA,ALTRO TIPO DI STRUTTURA TERRITORIALE,46.064674,11.126155,46.064674,11.126155
STR042101050803S05,50803,42,101,CENTRO DIURNO PSICHIATRICO TRENTO,1429410226.0,www.apss.tn.it,francesca.munerati@apss.tn.it,22205,TRENTO,VIA PETRARCA  1,38122,461902850,0461902854,S05,ASSISTENZA PSICHIATRICA,1,STRUTTURA DIRETTAMENTE GESTITA,STRUTTURA SEMIRESIDENZIALE,46.07241,11.12383,46.07241,11.12383
STR042101050804S05,50804,42,101,APP.TO DEL FARE INSIEME 'VIALE TRIESTE',nan, , ,22205,TRENTO,VIALE TRIESTE  29,38122,461987110, ,S05,ASSISTENZA PSICHIATRICA,1,STRUTTURA DIRETTAMENTE GESTITA,STRUTTURA RESIDENZIALE,46.065273,11.136137,46.065273,11.136137
STR042101050805S05,50805,42,101,APP.TO DEL FARE INSIEME 'P.ZZA MOSTRA NORD',nan, , ,22205,TRENTO,PIAZZA MOSTRA  7,38122,461232874, ,S05,ASSISTENZA PSICHIATRICA,1,STRUTTURA DIRETTAMENTE GESTITA,STRUTTURA RESIDENZIALE,46.070842,11.125939,46.070842,11.125939
STR042101050806S05,50806,42,101,APP.TO DEL FARE INSIEME 'P.ZZA MOSTRA SUD',nan, , ,22205,TRENTO,PIAZZA MOSTRA  7,38122,461231535, ,S05,ASSISTENZA PSICHIATRICA,1,STRUTTURA DIRETTAMENTE GESTITA,STRUTTURA RESIDENZIALE,46.070842,11.125939,46.070842,11.125939
STR042101050807S05,50807,42,101,COMUNITA' 'CASA DEL SOLE',1429410226.0, , ,22205,TRENTO,VIA MENGUZZATO  50,38123,461390472, ,S05,ASSISTENZA PSICHIATRICA,1,STRUTTURA DIRETTAMENTE GESTITA,STRUTTURA RESIDENZIALE,46.039027,11.135236,46.039027,11.135236
STR042101050808S05,50808,42,101,CASA DELL'AUTO AIUTO,nan, , ,22205,TRENTO,VIA DELLA COLLINA  10,38121,461234972, ,S05,ASSISTENZA PSICHIATRICA,1,STRUTTURA DIRETTAMENTE GESTITA,STRUTTURA RESIDENZIALE,46.069696,11.130921,46.069696,11.130921
STR042101050903S01,50903,42,101,NEUROPSICHIATRIA INFANTILE - UONPI 1,1429410226.0,www.apss.tn.it, ,22205,TRENTO,VIALE VERONA,38123,461902100,0461902074,S01,ATTIVITA` CLINICA,1,STRUTTURA DIRETTAMENTE GESTITA,ALTRO TIPO DI STRUTTURA TERRITORIALE,46.0451,11.129,46.0451,11.129
STR042101051200S03,51200,42,101,LABORATORI ADIGE SRL,258400225.0,www.laboratorioadige.it,laboratorio.adige@tin.it,22205,TRENTO,VIA GAZZOLETTI  12,38122,461220077,0461220124,S03,ATTIVITA` DI LABORATORIO,2,STRUTTURA NON DIRETTAMENTE GESTITA,AMBULATORIO E LABORATORIO,46.07233,11.122465,46.07233,11.122465
STR042101051300S03,51300,42,101,LABORATORIO DRUSO SRL,604710228.0, ,laboratoriodruso@cemargroup.com,22205,TRENTO,VIA LAVISOTTO  121,38122,461231314,0461260110,S03,ATTIVITA` DI LABORATORIO,2,STRUTTURA NON DIRETTAMENTE GESTITA,AMBULATORIO E LABORATORIO,46.064269,11.121447,46.064269,11.121447
STR042101051401S01,51401,42,101,CASA DI CURA VILLA BIANCA SPA,123990228.0, ,vb@villabiancatrento.it,22205,TRENTO,VIA PIAVE  78,38122,461916000,0461916874,S01,ATTIVITA` CLINICA,2,STRUTTURA NON DIRETTAMENTE GESTITA,AMBULATORIO E LABORATORIO,46.063077,11.126697,46.063077,11.126697
STR042101051401S02,51401,42,101,CASA DI CURA VILLA BIANCA SPA,123990228.0, ,vb@villabiancatrento.it,22205,TRENTO,VIA PIAVE  78,38122,461916000,0461916874,S02,DIAGNOSTICA STRUMENTALE E PER IMMAGINI,2,STRUTTURA NON DIRETTAMENTE GESTITA,AMBULATORIO E LABORATORIO,46.063077,11.126697,46.063077,11.126697
STR042101051401S03,51401,42,101,CASA DI CURA VILLA BIANCA SPA,123990228.0, ,vb@villabiancatrento.it,22205,TRENTO,VIA PIAVE  78,38122,461916000,0461916874,S03,ATTIVITA` DI LABORATORIO,2,STRUTTURA NON DIRETTAMENTE GESTITA,AMBULATORIO E LABORATORIO,46.063077,11.126697,46.063077,11.126697
STR042101051501S01,51501,42,101,CENTRO SERVIZI SANITARI,1429410226.0,www.apss.tn.it, ,22205,TRENTO,VIALE VERONA,38123,461902229,0461902272,S01,ATTIVITA` CLINICA,1,STRUTTURA DIRETTAMENTE GESTITA,AMBULATORIO E LABORATORIO,46.0451,11.129,46.0451,11.129
STR042101051501S02,51501,42,101,CENTRO SERVIZI SANITARI,1429410226.0,www.apss.tn.it, ,22205,TRENTO,VIALE VERONA,38123,461902229,0461902272,S02,DIAGNOSTICA STRUMENTALE E PER IMMAGINI,1,STRUTTURA DIRETTAMENTE GESTITA,AMBULATORIO E LABORATORIO,46.0451,11.129,46.0451,11.129
STR042101051501S03,51501,42,101,CENTRO SERVIZI SANITARI,1429410226.0,www.apss.tn.it, ,22205,TRENTO,VIALE VERONA,38123,461902229,0461902272,S03,ATTIVITA` DI LABORATORIO,1,STRUTTURA DIRETTAMENTE GESTITA,AMBULATORIO E LABORATORIO,46.0451,11.129,46.0451,11.129
STR042101051502S01,51502,42,101,PSICOLOGIA CLINICA,1429410226.0,www.apss.tn.it,psicologiatn@mail.apss.tn.it,22205,TRENTO,VIALE VERONA,38123,461902100,0461902074,S01,ATTIVITA` CLINICA,1,STRUTTURA DIRETTAMENTE GESTITA,ALTRO TIPO DI STRUTTURA TERRITORIALE,46.0451,11.129,46.0451,11.129
STR042101051600S06,51600,42,101,SER.T,1429410226.0,www.apss.tn.it,SertTrento@apss.tn.it,22205,TRENTO,VIA GOCCIADORO  47,38122,461364777,0461364780,S06,ASSISTENZA PER TOSSICODIPENDENTI,1,STRUTTURA DIRETTAMENTE GESTITA,ALTRO TIPO DI STRUTTURA TERRITORIALE,46.057068,11.129975,46.057068,11.129975
STR042101051800S02,51800,42,101,TECNOMED S.R.L.,1261040222.0, ,info@tecnomed-trento.it,22205,TRENTO,VIA PAOLO BORSELLINO  3,38122,461230005,0461931338,S02,DIAGNOSTICA STRUMENTALE E PER IMMAGINI,2,STRUTTURA NON DIRETTAMENTE GESTITA,AMBULATORIO E LABORATORIO,46.047484,11.1283753,46.047484,11.1283753
STR042101051900S04,51900,42,101,CONSULTORIO FAMILIARE UCIPEM,1464370228.0, ,consultorioucipem@virgilio.it,22205,TRENTO,VIA FERRUCCIO  1,38122,461233004,0461223196,S04,ATTIVITA` DI CONSULTORIO MATERNO-INFANTILE,2,STRUTTURA NON DIRETTAMENTE GESTITA,ALTRO TIPO DI STRUTTURA TERRITORIALE,46.068851,11.125927,46.068851,11.125927
STR042101052000S09,52000,42,101,AZIENDA PUBBLICA SERVIZI ALLA PERSONA - CIVICA TRENTO - S.BARTOLOMEO,260880224.0,www.civicatnapsp.it,segreteria@civicatnapsp.it,22205,TRENTO,VIA DELLA MALPENSADA  156,38122,461385000,0461385001,S09,ASSISTENZA AGLI ANZIANI,2,STRUTTURA NON DIRETTAMENTE GESTITA,STRUTTURA RESIDENZIALE,46.0456343,11.1325757,46.0456343,11.1325757
STR042101052001S09,52001,42,101,"AZIENDA PUBBLICA SERVIZI ALLA PERSONA - ""BEATO DE TSCHIDERER"" -",833600224.0,www.iaps.it,iaps.tn@iaps.tn,22205,TRENTO,VIA PIAVE  108,38122,461273414,0461273458,S09,ASSISTENZA AGLI ANZIANI,2,STRUTTURA NON DIRETTAMENTE GESTITA,STRUTTURA RESIDENZIALE,46.063465,11.126997,46.063465,11.126997
STR042101052002S09,52002,42,101,AZIENDA PUBBLICA SERVIZI ALLA PERSONA - RSA CAVEDINE,587400227.0,www.residenzavalledeilaghi.it,segreteria@residenzavalledeilaghi.it,22053,CAVEDINE,VIA OSPEDALE  24,38073,461568510,0461568324,S09,ASSISTENZA AGLI ANZIANI,2,STRUTTURA NON DIRETTAMENTE GESTITA,STRUTTURA RESIDENZIALE,45.9947176,10.972357,45.9947176,10.972357
STR042101052003S09,52003,42,101,AZIENDA PUBBLICA SERVIZI ALLA PERSONA - RSA POVO,358520229.0,www.apspgrazioli.it,info@rsagrazioli.it,22205,TRENTO,VIA DELLA RESISTENZA  63   POVO,38123,461810688,0461811487,S09,ASSISTENZA AGLI ANZIANI,2,STRUTTURA NON DIRETTAMENTE GESTITA,STRUTTURA RESIDENZIALE,46.068501,11.160766,46.068501,11.160766
STR042101052004S09,52004,42,101,AZIENDA PUBBLICA SERVIZI ALLA PERSONA - RSA MEZZOCORONA,375880226.0,www.upipa.tn.it,rsa@casacristiani.it,22116,MEZZOCORONA,VIA B CRISTANI  38,38016,461605303,0461604262,S09,ASSISTENZA AGLI ANZIANI,2,STRUTTURA NON DIRETTAMENTE GESTITA,STRUTTURA RESIDENZIALE,46.231153,11.119423,46.231153,11.119423
STR042101052005S09,52005,42,101,AZIENDA PUBBLICA SERVIZI ALLA PERSONA - RSA MEZZOLOMBARDO,1144840228.0,www.sangiovanni.tn.it,upipa.mezzolombardo@mail.infotn.it,22117,MEZZOLOMBARDO,VIA DAMIANO CHIESA  6,38017,461613711,0461613799,S09,ASSISTENZA AGLI ANZIANI,1,STRUTTURA DIRETTAMENTE GESTITA,STRUTTURA RESIDENZIALE,46.212968,11.09631,46.212968,11.09631
STR042101052007S09,52007,42,101,RSA - SPES VIA VENETO - TRENTO,251510228.0,www.gruppospes.it,residenzaviaveneto@gruppospes.it,22205,TRENTO,VIA VENETO  63,38122,461369111,0461369555,S09,ASSISTENZA AGLI ANZIANI,2,STRUTTURA NON DIRETTAMENTE GESTITA,STRUTTURA RESIDENZIALE,46.059552,11.125229,46.059552,11.125229
STR042101052008S09,52008,42,101,RSA - SPES VILLA BELFONTE - TRENTO,251510228.0,www.gruppospes.it,villabelfonte@gruppospes.it,22205,TRENTO,VIA VILLA BELFONTE  12,38123,461920294,0461917256,S09,ASSISTENZA AGLI ANZIANI,2,STRUTTURA NON DIRETTAMENTE GESTITA,STRUTTURA RESIDENZIALE,46.045064,11.150021,46.045064,11.150021
STR042101052009S09,52009,42,101,AZIENDA PUBBLICA SERVIZI ALLA PERSONA - RSA LAVIS,322440223.0,www.rsalavis.it,info@rsalavis.it,22103,LAVIS,VIA ORTI  50,38015,461246308,0461246967,S09,ASSISTENZA AGLI ANZIANI,2,STRUTTURA NON DIRETTAMENTE GESTITA,STRUTTURA RESIDENZIALE,46.136261,11.111185,46.136261,11.111185
STR042101052010S06,52010,42,101,ASSOCIAZIONE CENTRO ANTIDROGA,949850226.0,www.centroantidroga-tn.it,camparta@gmail.com,22205,TRENTO,MASO ZANCANELLA   GARDOLO,38121,461961336,0461991351,S06,ASSISTENZA PER TOSSICODIPENDENTI,2,STRUTTURA NON DIRETTAMENTE GESTITA,STRUTTURA RESIDENZIALE,46.139283,11.131145,46.139283,11.131145
STR042101052011S09,52011,42,101,AZIENDA PUBBLICA SERVIZI ALLA PERSONA - RSA CIVICA ANGELI CUSTODI,260880224.0,www.civicatnapsp.it,segreteria@civicatnapsp.it,22205,TRENTO,VIA DELLA COLLINA  2,38121,461207711,0461207704,S09,ASSISTENZA AGLI ANZIANI,2,STRUTTURA NON DIRETTAMENTE GESTITA,STRUTTURA RESIDENZIALE,46.069457,11.130534,46.069457,11.130534
STR042101052012S09,52012,42,101,AZIENDA PUBBLICA SERVIZI ALLA PERSONA - RSA CIVICA GABBIOLO,260880224.0,www.civicatnapsp.it,segreteria@civicatnapsp.it,22205,TRENTO,VIA ZNOJMO  16   GABBIOLO DI POVO,38123,461911517,0461913289,S09,ASSISTENZA AGLI ANZIANI,2,STRUTTURA NON DIRETTAMENTE GESTITA,STRUTTURA RESIDENZIALE,46.051609,11.149423,46.051609,11.149423
STR042101052013S09,52013,42,101,AZIENDA PUBBLICA SERVIZI ALLA PERSONA - RSA CIVICA GARDOLO,260880224.0,www.civicatnapsp.it,segreteria@civicatnapsp.it,22205,TRENTO,VIA AEROPORTO  38   GARDOLO,38121,461950080,0461960586,S09,ASSISTENZA AGLI ANZIANI,2,STRUTTURA NON DIRETTAMENTE GESTITA,STRUTTURA RESIDENZIALE,46.107495,11.100706,46.107495,11.100706
STR042101052014S09,52014,42,101,CENTRO DIURNO PER ANZIANI - GARDOLO - TN,1522650223.0, ,kaleidoscopio@consolida.it,22205,TRENTO,VIA S ANNA  5,38121,461816047,0461819056,S09,ASSISTENZA AGLI ANZIANI,2,STRUTTURA NON DIRETTAMENTE GESTITA,STRUTTURA SEMIRESIDENZIALE,46.109338,11.110928,46.109338,11.110928
STR042101052015S01,52015,42,101,AZIENDA PUBBLICA SERVIZI ALLA PERSONA - RSA LAVIS - AMB.FKT,322440223.0,www.rsalavis.it,info@apsplavis.it,22103,LAVIS,VIA ORTI  50,38015,461246308,0461246967,S01,ATTIVITA` CLINICA,2,STRUTTURA NON DIRETTAMENTE GESTITA,AMBULATORIO E LABORATORIO,46.136261,11.111185,46.136261,11.111185
STR042101052016S09,52016,42,101,CENTRO DIURNO PER ANZIANI - CLARINA - TN,1274180221.0,http://www.delfino.coop,delfino@consolida.it,22205,TRENTO,VIA GRAMSCI  36,38123,461825296,0461420004,S09,ASSISTENZA AGLI ANZIANI,2,STRUTTURA NON DIRETTAMENTE GESTITA,STRUTTURA SEMIRESIDENZIALE,46.053467,11.12469,46.053467,11.12469
STR042101052017S09,52017,42,101,CENTRO DIURNO PER ANZIANI - RAVINA - TN,980950224.0,www.faicoop.com,info@faicoop.com,22205,TRENTO,VIA BELVEDERE  4,38123,461825296,0461420004,S09,ASSISTENZA AGLI ANZIANI,2,STRUTTURA NON DIRETTAMENTE GESTITA,STRUTTURA SEMIRESIDENZIALE,46.038443,11.107456,46.038443,11.107456
STR042101052018S09,52018,42,101,CENTRO DIURNO PER ANZIANI - MATTARELLO - TN,1288620220.0,www.cooperativasad.it,info@cooperativasad.it,22205,TRENTO,VIA DON TRENTINI  6,38123,461239596,046123445,S09,ASSISTENZA AGLI ANZIANI,2,STRUTTURA NON DIRETTAMENTE GESTITA,STRUTTURA SEMIRESIDENZIALE,46.005099,11.12842,46.005099,11.12842
STR042101052019S09,52019,42,101,CENTRO DIURNO PER ANZIANI - POVO - TN,358520229.0,http://www.apspgrazioli.it/,info@apspgrazioli.it,22205,TRENTO,VIA DELLA RESISTENZA  61/F,38123,461818102,0461818129,S09,ASSISTENZA AGLI ANZIANI,2,STRUTTURA NON DIRETTAMENTE GESTITA,STRUTTURA SEMIRESIDENZIALE,46.069256,11.161066,46.069256,11.161066
STR042101052020S09,52020,42,101,CENTRO DIURNO ALZHEIMER - TRENTO,260880224.0,http://www.civicatnapsp.it/,segreteria@civicatnapsp.it,22205,TRENTO,VIA S GIOVANNI BOSCO  10,38122,461385000,0461385001,S09,ASSISTENZA AGLI ANZIANI,2,STRUTTURA NON DIRETTAMENTE GESTITA,STRUTTURA SEMIRESIDENZIALE,46.064656,11.126563,46.064656,11.126563
STR042101052021S11,52021,42,101,CASA SERENA - ANFFAS -CENTRO RESIDENZIALE DISABILI - TRENTO,1785780220.0,www.anffas.tn.it,associazione@anffas.tn.it,22205,TRENTO,VIA G B  TRENER  8,38121,461407511,0461407500,S11,ASSISTENZA AI DISABILI PSICHICI,2,STRUTTURA NON DIRETTAMENTE GESTITA,STRUTTURA RESIDENZIALE,11.114954,46.093598,11.114954,46.093598
STR042101052022S11,52022,42,101,CENTRO DIURNO SOCIO RIAB. PER DISABILI ANFFAS - IL PAESE DI OZ - TRENTO,1785780220.0,www.ilpaesedioz.anffas.tn.it,ilpaesedioz@anffas.tn.it,22205,TRENTO,VIA AOSTA  1   VIA FERMI  40,38122,461923725,0461935785,S11,ASSISTENZA AI DISABILI PSICHICI,2,STRUTTURA NON DIRETTAMENTE GESTITA,STRUTTURA SEMIRESIDENZIALE,11.128063,46.056658,11.128063,46.056658
STR042101052023S07,52023,42,101,CTS - COMUNITA' ACCOGLIENZA AIDS,1190120228.0,www.citiesse.org,info@citiesse.org,22205,TRENTO,LAMAR DI GARDOLO,38122,461933179,0461933048,S07,ASSISTENZA AIDS,2,STRUTTURA NON DIRETTAMENTE GESTITA,STRUTTURA RESIDENZIALE,46.118392,11.10613,46.118392,11.10613
STR042101052024S10,52024,42,101,CENTRO DIURNO SOCIO RIAB. PER DISABILI FRANCA MARTINI - A.T.S.M. - TRENTO,96022060220.0,www.atsm-cfm.org,atsmtn@libero.it;info@atsm.191.tn.it,22205,TRENTO,VIA T  TARAMELLI  8/C    VIA DEGASPERI  126/2,38121,4611788701,0461238113,S10,ASSISTENZA AI DISABILI FISICI,2,STRUTTURA NON DIRETTAMENTE GESTITA,STRUTTURA SEMIRESIDENZIALE,46.06128,11.116986,46.06128,11.116986
STR042101052025S11,52025,42,101,COMUNITA' SOCIOSANIT. PER MINORI- GRUPPO APPARTAMENTO LOC. CAMPOTRENTINO,1437380221.0,www.appm.it,residenzialecampotrentino@appm.it,22205,TRENTO,VIA ZAMBRA  11,38121,461829896,0461824666,S11,ASSISTENZA AI DISABILI PSICHICI,2,STRUTTURA NON DIRETTAMENTE GESTITA,STRUTTURA RESIDENZIALE,46.0916099,11.1179487,46.0916099,11.1179487
STR042101052026S01,52026,42,101,"ASSOCIAZIONE TRENTINA SCLEROSI MULTIPLA, ONLUS",96022060220.0,www.atsm-cfm.org,atsmtn@libero.it,22205,TRENTO,VIA TARAMELLI  8/C,38122,461238111,0461238080,S01,ATTIVITA` CLINICA,2,STRUTTURA NON DIRETTAMENTE GESTITA,AMBULATORIO E LABORATORIO,46.06128,11.116986,46.06128,11.116986
STR042101052027S01,52027,42,101,ANFFAS TRENTINO ONLUS,1785780578.0,www.anffas.tn.it,ilpaesedioz@anffas.tn.it,22205,TRENTO,VIA AOSTA  1,38123,461407511,0461407500,S01,ATTIVITA` CLINICA,2,STRUTTURA NON DIRETTAMENTE GESTITA,AMBULATORIO E LABORATORIO,46.056699,11.128047,46.056699,11.128047
STR042101052028S01,52028,42,101,COOPERATIVA SOCIALE IRIFOR DEL TRENTINO ONLUS,2085130223.0,www.irifor.it,segreteria@irifor.it,22205,TRENTO,VIA DELLA MALVASIA  15,38122,4611959595,04611959596,S01,ATTIVITA` CLINICA,2,STRUTTURA NON DIRETTAMENTE GESTITA,AMBULATORIO E LABORATORIO,46.077818,11.123928,46.077818,11.123928
STR042101052029S11,52029,42,101,ASSOCIAZIONE CENTRO ANTIDROGA ONLUS-COMUNITA' TERAP. PER LA CURA DEI DISTURBI ALIMENTARI,949850226.0,www.centrocuradisturbialimentari-tn.it,amministrazionecad@gmail.com,22205,TRENTO,VIA PALAZZINE   MASO ZANCANELLA,38122,461960338,0461961336,S11,ASSISTENZA AI DISABILI PSICHICI,2,STRUTTURA NON DIRETTAMENTE GESTITA,STRUTTURA RESIDENZIALE,46.114409,11.104479,46.114409,11.104479
STR042101052100S01,52100,42,101,AGSAT ASSOCIAZIONE GENITORI SOGGETTI AUTISTICI TRENTINI,1915050221.0,www.agsat.org,segreteria@agsat.org,22205,TRENTO,VIA MARONI  15,38122,461420351,0461427544,S01,ATTIVITA` CLINICA,2,STRUTTURA NON DIRETTAMENTE GESTITA,AMBULATORIO E LABORATORIO,46.076842,11.114704,46.076842,11.114704
STR042101052103S01,52103,42,101,AZIENDA PUBBLICA SERVIZI ALLA PERSONA - RSA POVO - AMB. FKT,358920229.0,www.apspgrazioli.it,info@apspgrazioli.it,22205,TRENTO,VIA DELLA RESISTENZA  63   FR  POVO,38123,461810688,0461811487,S01,ATTIVITA` CLINICA,2,STRUTTURA NON DIRETTAMENTE GESTITA,AMBULATORIO E LABORATORIO,46.068501,11.160766,46.068501,11.160766
STR042101052200S06,52200,42,101,COMUNITA' DI ACCOGLIENZA CASA DI GIANO,1190120228.0,www.giano.org,accoglienza@citiesse.org,22248,VALLELAGHI,VIA DI MAIANO  55   LOCALITA  S  MASSENZA,38070,461864106,0461933048,S06,ASSISTENZA PER TOSSICODIPENDENTI,2,STRUTTURA NON DIRETTAMENTE GESTITA,STRUTTURA RESIDENZIALE,46.075294,10.984083,46.075294,10.984083
STR042101052300S06,52300,42,101,COMUNITA' TERAPEUTICA CASA DI GIANO,1190120228.0,www.citiesse.org,comunita@citiesse.org,22248,VALLELAGHI,VIA DI MAIANO  55   LOCALITA  S MASSENZA,38070,461864106,0461933048,S06,ASSISTENZA PER TOSSICODIPENDENTI,2,STRUTTURA NON DIRETTAMENTE GESTITA,STRUTTURA RESIDENZIALE,46.075294,10.984083,46.075294,10.984083
STR042101052400S01,52400,42,101,CST TRENTO,2237150228.0,www.csttrento.it,info@csttrento.it,22205,TRENTO,VIA G B  TRENER  2/2,38121,461830596,0461426581,S01,ATTIVITA` CLINICA,2,STRUTTURA NON DIRETTAMENTE GESTITA,AMBULATORIO E LABORATORIO,46.093287,11.114829,46.093287,11.114829
STR042101052400S02,52400,42,101,CST TRENTO,2237150228.0,www.csttrento.it,info@csttrento.it,22205,TRENTO,VIA G B  TRENER  2/2,38121,461830596,0461426581,S02,DIAGNOSTICA STRUMENTALE E PER IMMAGINI,2,STRUTTURA NON DIRETTAMENTE GESTITA,AMBULATORIO E LABORATORIO,46.093287,11.114829,46.093287,11.114829
STR042101055401S09,55401,42,101,RSA - SPES CASA FAMIGLIA - TRENTO,251510228.0,www.gruppospes.it,casafamiglia@gruppospes.it,22205,TRENTO,VIA DELLA COLTURA 138   LOC  CADINE,38123,461236566,0461233551,S09,ASSISTENZA AGLI ANZIANI,2,STRUTTURA NON DIRETTAMENTE GESTITA,STRUTTURA RESIDENZIALE,46.065503,11.120083,46.065503,11.120083
STR042101055500S01,55500,42,101,A.P.S.P. 'BEATO DE TSCHIDERER' - AMB. LOGO-AUDIOP.,833600224.0,www.iaps.it,info@iaps.it,22205,TRENTO,VIA PIAVE  108,38122,461273414,0461273458,S01,ATTIVITA` CLINICA,2,STRUTTURA NON DIRETTAMENTE GESTITA,AMBULATORIO E LABORATORIO,46.063465,11.126997,46.063465,11.126997
STR042101056000S09,56000,42,101,RSA VALLE DI CEMBRA,251510228.0,www.gruppospes.it,valledicembra@gruppospes.it,22241,CEMBRA LISIGNAGO,LOC  BEDIN  4,38030,461680055,0461683394,S09,ASSISTENZA AGLI ANZIANI,2,STRUTTURA NON DIRETTAMENTE GESTITA,STRUTTURA RESIDENZIALE,46.161795,11.198441,46.161795,11.198441
STR042101060201S01,60201,42,101,PRESIDIO OSPEDALIERO DI CLES,1429410226.0,www.apss.tn.it, ,22062,CLES,VIALE DEGASPERI 31,38023,463660705,0463660758,S01,ATTIVITA` CLINICA,1,STRUTTURA DIRETTAMENTE GESTITA,AMBULATORIO E LABORATORIO,46.3608,11.0323,46.3608,11.0323
STR042101060201S02,60201,42,101,PRESIDIO OSPEDALIERO DI CLES,1429410226.0,www.apss.tn.it, ,22062,CLES,VIALE DEGASPERI 31,38023,463660705,0463660758,S02,DIAGNOSTICA STRUMENTALE E PER IMMAGINI,1,STRUTTURA DIRETTAMENTE GESTITA,AMBULATORIO E LABORATORIO,46.3608,11.0323,46.3608,11.0323
STR042101060201S03,60201,42,101,PRESIDIO OSPEDALIERO DI CLES,1429410226.0,www.apss.tn.it, ,22062,CLES,VIALE DEGASPERI 31,38023,463660705,0463660758,S03,ATTIVITA` DI LABORATORIO,1,STRUTTURA DIRETTAMENTE GESTITA,AMBULATORIO E LABORATORIO,46.3608,11.0323,46.3608,11.0323
STR042101060202S05,60202,42,101,CENTRO SALUTE MENTALE CLES,1429410226.0,www.apss.tn.it,luisa.ossana@apss.tn.it,22062,CLES,VIALE DEGASPERI  47,38023,463660272,0463660129,S05,ASSISTENZA PSICHIATRICA,1,STRUTTURA DIRETTAMENTE GESTITA,ALTRO TIPO DI STRUTTURA TERRITORIALE,46.36036,11.0302308,46.36036,11.0302308
STR042101060203S01,60203,42,101,CENTRO DIALISI CLES,1429410226.0,www.apss.tn.it, ,22062,CLES,VIALE DEGASPERI  31,38023,463660263,0463660128,S01,ATTIVITA` CLINICA,1,STRUTTURA DIRETTAMENTE GESTITA,ALTRO TIPO DI STRUTTURA TERRITORIALE,46.3608,11.0323,46.3608,11.0323
STR042101060204S05,60204,42,101,CENTRO DIURNO PSICHIATRICO CLES,1429410226.0,www.apss.tn.it,luisa.ossana@apss.tn.it,22062,CLES,VIALE DEGASPERI  31,38023,463660272,0463660129,S05,ASSISTENZA PSICHIATRICA,1,STRUTTURA DIRETTAMENTE GESTITA,STRUTTURA SEMIRESIDENZIALE,46.3608,11.0323,46.3608,11.0323
STR042101060401S09,60401,42,101,AZIENDA PUBBLICA SERVIZI ALLA PERSONA - RSA ANAUNIA,1839930227.0,www.apsptaio.org,info@apsptaio.org,22230,PREDAIA,VIA THOMAS A  EDISON  20   LOC  TAIO,38012,463467617,0463467621,S09,ASSISTENZA AGLI ANZIANI,2,STRUTTURA NON DIRETTAMENTE GESTITA,STRUTTURA RESIDENZIALE,46.324779,11.065975,46.324779,11.065975
STR042101060402S01,60402,42,101,AZIENDA PUBBLICA SERVIZI ALLA PERSONA - RSA ANAUNIA  - AMB. FKT,1839930227.0,www.apsptaio.org,info@apsptaio.org,22230,PREDAIA,VIA THOMAS A  EDISON  20   LOC  TAIO,38012,463467617,0463467621,S01,ATTIVITA` CLINICA,2,STRUTTURA NON DIRETTAMENTE GESTITA,AMBULATORIO E LABORATORIO,46.324779,11.065975,46.324779,11.065975
STR042101060501S09,60501,42,101,AZIENDA PUBBLICA SERVIZI ALLA PERSONA - RSA CLES,1022420226.0,www.apspcles.it,info@apspcles.it,22062,CLES,VIA CHINI  37,38023,463601311,0463424730,S09,ASSISTENZA AGLI ANZIANI,2,STRUTTURA NON DIRETTAMENTE GESTITA,STRUTTURA RESIDENZIALE,46.364397,11.029533,46.364397,11.029533
STR042101060505S09,60505,42,101,CENTRO DIURNO PER ANZIANI - CLES,1022420226.0, ,info@apspcles.it,22062,CLES,VIA CHINI  37,38023,463601311,0463424730,S09,ASSISTENZA AGLI ANZIANI,2,STRUTTURA NON DIRETTAMENTE GESTITA,STRUTTURA SEMIRESIDENZIALE,46.364397,11.029533,46.364397,11.029533
STR042101060601S09,60601,42,101,RSA - STELLA MONTIS - FONDO,1166230225.0,www.upipa.tn.it,stellamontis@consolida.it,22088,FONDO,VIA S LUCIA  11,38050,463832664,0463832706,S09,ASSISTENZA AGLI ANZIANI,2,STRUTTURA NON DIRETTAMENTE GESTITA,STRUTTURA RESIDENZIALE,46.440599,11.135037,46.440599,11.135037
STR042101060701S04,60701,42,101,CONSULTORIO CLES,1429410226.0,www.apss.tn.it,consultorio.familiare.cles@apss.tn.it,22062,CLES,VIA ROMANA  55,38023,463422132,0463608273,S04,ATTIVITA` DI CONSULTORIO MATERNO-INFANTILE,1,STRUTTURA DIRETTAMENTE GESTITA,ALTRO TIPO DI STRUTTURA TERRITORIALE,46.362556,11.037079,46.362556,11.037079
STR042101060801S05,60801,42,101,"APPARTAMENTO PROTETTO ""IL MELO""",1429410226.0,www.apss.tn.it, ,22062,CLES,VIA TRENTO  42,38023,463421701, ,S05,ASSISTENZA PSICHIATRICA,1,STRUTTURA DIRETTAMENTE GESTITA,STRUTTURA RESIDENZIALE,46.3558562,11.0386847,46.3558562,11.0386847
STR042101060901S05,60901,42,101,APPARTAMENTO PROTETTO,1429410226.0,www.apss.tn.it, ,22062,CLES,VIA  SAN VITO,38023,463422901, ,S05,ASSISTENZA PSICHIATRICA,1,STRUTTURA DIRETTAMENTE GESTITA,STRUTTURA RESIDENZIALE,46.362225,11.0263984,46.362225,11.0263984
STR042101061001S11,61001,42,101,COMUNITA' RESIDENZIALE TEMPORANEA VALLE APERTA,1493010225.0,www.associazionevalleaperta.it,amministrazione@associazionevalleaperta.it,22235,ALTAVALLE,VIA EUROPA 4   LOC  PONCIACH DI FAVER,38030,461683318,0461683318,S11,ASSISTENZA AI DISABILI PSICHICI,2,STRUTTURA NON DIRETTAMENTE GESTITA,STRUTTURA RESIDENZIALE,46.202738,11.232117,46.202738,11.232117
STR042101070101S01,70101,42,101,POLIAMBULATORIO MALE`,1429410226.0,www.apss.tn.it, ,22110,MALÈ,VIA 4 NOVEMBRE  8,38027,463909400, ,S01,ATTIVITA` CLINICA,1,STRUTTURA DIRETTAMENTE GESTITA,AMBULATORIO E LABORATORIO,46.350194,10.910061,46.350194,10.910061
STR042101070201S04,70201,42,101,CONSULTORIO MALE',1429410226.0,www.apss.tn.it, ,22110,MALÈ,VIA IV NOVEMBRE  8,38027,463909419, ,S04,ATTIVITA` DI CONSULTORIO MATERNO-INFANTILE,1,STRUTTURA DIRETTAMENTE GESTITA,ALTRO TIPO DI STRUTTURA TERRITORIALE,46.350194,10.910061,46.350194,10.910061
STR042101070301S05,70301,42,101,APPARTAMENTO PROTETTO,1429410226.0,www.apss.tn.it, ,22110,MALÈ,VIA MILANO  4,38027,463901040, ,S05,ASSISTENZA PSICHIATRICA,1,STRUTTURA DIRETTAMENTE GESTITA,STRUTTURA RESIDENZIALE,46.349042,10.910357,46.349042,10.910357
STR042101071201S09,71201,42,101,AZIENDA PUBBLICA SERVIZI ALLA PERSONA - RSA MALE',1019290228.0,www.centroservizimale.it,amministrazione@pec.centroservizimale.it,22110,MALÈ,VIALE 4 NOVEMBRE 4/A,38027,463902062,0463902884,S09,ASSISTENZA AGLI ANZIANI,2,STRUTTURA NON DIRETTAMENTE GESTITA,STRUTTURA RESIDENZIALE,46.356643,10.907661,46.356643,10.907661
STR042101071202S09,71202,42,101,CENTRO DIURNO ANZIANI - MALE',1019290228.0,www.centroservizimale.it,amministrazione@pec.centroservizimale.it,22110,MALÈ,VIALE 4 NOVEMBRE  4/A,38027,463902062,0463902884,S09,ASSISTENZA AGLI ANZIANI,2,STRUTTURA NON DIRETTAMENTE GESTITA,STRUTTURA SEMIRESIDENZIALE,46.351181,10.91003,46.351181,10.91003
STR042101071301S09,71301,42,101,AZIENDA PUBBLICA SERVIZI ALLA PERSONA - RSA PELLIZZANO,966130221.0,www.apsp-pellizzano.it,info@apsp-pellizzano.it,22137,PELLIZZANO,VIA DEI BASCHENIS  6,38024,463751266,0463751000,S09,ASSISTENZA AGLI ANZIANI,2,STRUTTURA NON DIRETTAMENTE GESTITA,STRUTTURA RESIDENZIALE,46.310982,10.907993,46.310982,10.907993
STR042101071401S08,71401,42,101,PEJO TERME NATURA SRL,1584070229.0,www.termepejo.it,info@termepejo.it,22136,PEIO,VIA DELLE ACQUE ACIDULE  3,38024,463753226,0463743207,S08,ASSISTENZA IDROTERMALE,2,STRUTTURA NON DIRETTAMENTE GESTITA,ALTRO TIPO DI STRUTTURA TERRITORIALE,46.354034,10.662855,46.354034,10.662855
STR042101071501S08,71501,42,101,TERME DI RABBI S.R.L.,1649320221.0,www.termedirabbi.it,info@termedirabbi.it,22150,RABBI,LOCALITÀ FONTI DI RABBI  162,38020,463983000,0463985070,S08,ASSISTENZA IDROTERMALE,2,STRUTTURA NON DIRETTAMENTE GESTITA,ALTRO TIPO DI STRUTTURA TERRITORIALE,46.410715,10.818701,46.410715,10.818701
STR042101080101S01,80101,42,101,PRESIDIO OSPEDALIERO TIONE,1429410226.0,www.apss.tn.it,domenico.gaetano@apss.tn.it,22199,TIONE DI TRENTO,VIA OSPEDALE  11,38079,465331256,0465331254,S01,ATTIVITA` CLINICA,1,STRUTTURA DIRETTAMENTE GESTITA,AMBULATORIO E LABORATORIO,46.0413,10.7244,46.0413,10.7244
STR042101080101S02,80101,42,101,PRESIDIO OSPEDALIERO TIONE,1429410226.0,www.apss.tn.it,domenico.gaetano@apss.tn.it,22199,TIONE DI TRENTO,VIA OSPEDALE  11,38079,465331256,0465331254,S02,DIAGNOSTICA STRUMENTALE E PER IMMAGINI,1,STRUTTURA DIRETTAMENTE GESTITA,AMBULATORIO E LABORATORIO,46.0413,10.7244,46.0413,10.7244
STR042101080101S03,80101,42,101,PRESIDIO OSPEDALIERO TIONE,1429410226.0,www.apss.tn.it,domenico.gaetano@apss.tn.it,22199,TIONE DI TRENTO,VIA OSPEDALE  11,38079,465331256,0465331254,S03,ATTIVITA` DI LABORATORIO,1,STRUTTURA DIRETTAMENTE GESTITA,AMBULATORIO E LABORATORIO,46.0413,10.7244,46.0413,10.7244
STR042101080102S05,80102,42,101,CENTRO SALUTE MENTALE TIONE,1429410226.0, ,csmtione@apss.tn.it,22199,TIONE DI TRENTO,VIA OSPEDALE  8,38079,465339717,0465339715,S05,ASSISTENZA PSICHIATRICA,1,STRUTTURA DIRETTAMENTE GESTITA,ALTRO TIPO DI STRUTTURA TERRITORIALE,46.041425,10.725921,46.041425,10.725921
STR042101080103S09,80103,42,101,APSS - RSO TIONE,1429410226.0,www.apss.tn.it, ,22199,TIONE DI TRENTO,C/O OSPEDALE,38079,465331231,0465331263,S09,ASSISTENZA AGLI ANZIANI,1,STRUTTURA DIRETTAMENTE GESTITA,STRUTTURA RESIDENZIALE,46.0413,10.7244,46.0413,10.7244
STR042101080104S04,80104,42,101,CONSULTORIO FAMILIARE TIONE,1429410226.0,www.apss.tn.it,consultorio.familiare.tione@apss.tn.it,22199,TIONE DI TRENTO,VIA DELLA CROS  4,38079,465331530,0465331527,S04,ATTIVITA` DI CONSULTORIO MATERNO-INFANTILE,1,STRUTTURA DIRETTAMENTE GESTITA,ALTRO TIPO DI STRUTTURA TERRITORIALE,46.040784,10.726615,46.040784,10.726615
STR042101080105S01,80105,42,101,CENTRO DIALISI TIONE,1429410226.0,www.apss.tn.it, ,22199,TIONE DI TRENTO,VIA OSPEDALE  11,38081,465331370,0465331261,S01,ATTIVITA` CLINICA,1,STRUTTURA DIRETTAMENTE GESTITA,ALTRO TIPO DI STRUTTURA TERRITORIALE,46.0413,10.7244,46.0413,10.7244
STR042101080106S05,80106,42,101,CENTRO DIURNO PSICHIATRICO TIONE,1429410226.0, , ,22199,TIONE DI TRENTO,VIA OSPEDALE  10,38080,465339720,0465339715,S05,ASSISTENZA PSICHIATRICA,1,STRUTTURA DIRETTAMENTE GESTITA,STRUTTURA SEMIRESIDENZIALE,46.0413,10.7244,46.0413,10.7244
STR042101080107S09,80107,42,101,CENTRO DIURNO PER ANZIANI - TIONE,1669210229.0, ,organizzazione@coopassistenza.net,22199,TIONE DI TRENTO,VIA MONS  PERLI  11,38079,465322635, ,S09,ASSISTENZA AGLI ANZIANI,2,STRUTTURA NON DIRETTAMENTE GESTITA,STRUTTURA SEMIRESIDENZIALE,46.034903,10.72641,46.034903,10.72641
STR042101080202S09,80202,42,101,AZIENDA PUBBLICA SERVIZI ALLA PERSONA - RSA CONDINO,1022480220.0,www.rosadeiventi.tn.it,upipa.condino@mail.infotn.it,22238,BORGO CHIESE,VIA BATTISTI  6,38083,465621047,0465621847,S09,ASSISTENZA AGLI ANZIANI,2,STRUTTURA NON DIRETTAMENTE GESTITA,STRUTTURA RESIDENZIALE,45.889396,10.598116,45.889396,10.598116
STR042101080203S09,80203,42,101,AZIENDA PUBBLICA SERVIZI ALLA PERSONA - RSA SPIAZZO,1010080222.0,www.casariposospiazzo.it,segreteria@casariposospiazzo.it,22179,SPIAZZO,VIA S VIGILIO  13,38088,465803111,0465803125,S09,ASSISTENZA AGLI ANZIANI,2,STRUTTURA NON DIRETTAMENTE GESTITA,STRUTTURA RESIDENZIALE,46.10398,10.736351,46.10398,10.736351
STR042101080204S01,80204,42,101,AZIENDA PUBBLICA SERVIZI ALLA PERSONA - RSA CONDINO - AMB. FKT,1022480220.0,www.rosadeiventi.tn.it,upipa.condino@mail.infotn.it,22238,BORGO CHIESE,VIA C  BATTISTI  6,38063,465621047,0465621847,S01,ATTIVITA` CLINICA,2,STRUTTURA NON DIRETTAMENTE GESTITA,AMBULATORIO E LABORATORIO,45.889396,10.598116,45.889396,10.598116
STR042101080207S09,80207,42,101,CENTRO DIURNO PER ANZIANI - CONDINO,1022480220.0, ,upipa.condino@mail.infotn.it,22238,BORGO CHIESE,VIA C  BATTISTI  6,38083,465621047,0465621847,S09,ASSISTENZA AGLI ANZIANI,2,STRUTTURA NON DIRETTAMENTE GESTITA,STRUTTURA SEMIRESIDENZIALE,45.889396,10.598116,45.889396,10.598116
STR042101080301S09,80301,42,101,AZIENDA PUBBLICA SERVIZI ALLA PERSONA - RSA BLEGGIO SUPERIORE,1252190226.0,www.apspgiudicarieesteriori.it,segreteria@apspgiudicarieesteriori.it,22017,BLEGGIO SUPERIORE,FR S CROCE  41,38071,465779824,0465779555,S09,ASSISTENZA AGLI ANZIANI,2,STRUTTURA NON DIRETTAMENTE GESTITA,STRUTTURA RESIDENZIALE,46.038446,10.836639,46.038446,10.836639
STR042101080402S09,80402,42,101,CENTRO DIURNO PER ANZIANI - VILLA RENDENA,2148200229.0, ,serviziosocioassistenziale@comunitadellegiudicarie,22244,PORTE DI RENDENA,C/O CASA APERTA PER ANZIANI,38080,465339526,0465321077,S09,ASSISTENZA AGLI ANZIANI,2,STRUTTURA NON DIRETTAMENTE GESTITA,STRUTTURA SEMIRESIDENZIALE,10.713303,46.05525,10.713303,46.05525
STR042101081700S09,81700,42,101,AZIENDA PUBBLICA SERVIZI ALLA PERSONA - RSA PIEVE DI BONO,1083720225.0,www.apsppievedibono.it,mail@rsapdb.it,22234,PIEVE DI BONO-PREZZO,FRAZIONE STRADA  1,38085,465674030,0465674857,S09,ASSISTENZA AGLI ANZIANI,2,STRUTTURA NON DIRETTAMENTE GESTITA,STRUTTURA RESIDENZIALE,45.946465,10.644529,45.946465,10.644529
STR042101081705S11,81705,42,101,COMUNITA' RESIDENZIALE TEMPORANEA - BERSONE,1182560225.0, ,graziascaglia@libero.it,22232,VALDAONE,VIA CHIESA  4 LOC  BERSONE,38080,3299060064,0465296884,S11,ASSISTENZA AI DISABILI PSICHICI,2,STRUTTURA NON DIRETTAMENTE GESTITA,STRUTTURA RESIDENZIALE,45.944457,10.633156,45.944457,10.633156
STR042101081706S11,81706,42,101,CENTRO DIURNO PER ADULTI BERSONE,1182560225.0, ,graziascaglia@libero.it,22232,VALDAONE,VIA CHIESA  4   LOC  BERSONE,38080,3299060064,0465296884,S11,ASSISTENZA AI DISABILI PSICHICI,2,STRUTTURA NON DIRETTAMENTE GESTITA,STRUTTURA SEMIRESIDENZIALE,45.944457,10.633156,45.944457,10.633156
STR042101081801S08,81801,42,101,TERME DI COMANO - AZIENDA CONSORZIALE,180160228.0,www.termecomano.it,informazioni@termecomano.it,22228,COMANO TERME,VIA CESARE BATTISTI 161,38077,465701277,0465702064,S08,ASSISTENZA IDROTERMALE,2,STRUTTURA NON DIRETTAMENTE GESTITA,ALTRO TIPO DI STRUTTURA TERRITORIALE,46.038914,10.874438,46.038914,10.874438
STR042101081802S01,81802,42,101,AZIENDA CONSORZIALE TERME DI COMANO,180160228.0,www.termecomano.it,informazioni@termecomano.it,22228,COMANO TERME,VIA CESARE BATTISTI 161,38077,465701277,0465702064,S01,ATTIVITA` CLINICA,2,STRUTTURA NON DIRETTAMENTE GESTITA,AMBULATORIO E LABORATORIO,46.038914,10.874438,46.038914,10.874438
STR042101081901S09,81901,42,101,AZIENDA PUBBLICA SERVIZI ALLA PERSONA - RSA STORO,1437290222.0,www.comune.storo.tn.it,rsastoro@gmail.com,22183,STORO,VIA SETTE PIEVI  9,38089,465686018,0465680843,S09,ASSISTENZA AGLI ANZIANI,2,STRUTTURA NON DIRETTAMENTE GESTITA,STRUTTURA RESIDENZIALE,45.848487,10.57462,45.848487,10.57462
STR042101081902S01,81902,42,101,AZIENDA PUBBLICA SERVIZI ALLA PERSONA - RSA STORO - AMB. FKT,1437290222.0, ,rsastoro@gmail.it,22183,STORO,VIA SETTE PIEVI  9,38089,465686018,0465680843,S01,ATTIVITA` CLINICA,2,STRUTTURA NON DIRETTAMENTE GESTITA,AMBULATORIO E LABORATORIO,45.848487,10.57462,45.848487,10.57462
STR042101081903S01,81903,42,101,CASA PER LA SALUTE DI STORO,1429410226.0, , ,22183,STORO,VIA DELLE SETTE PIEVI  22,38089,465331441,0465331443,S01,ATTIVITA` CLINICA,1,STRUTTURA DIRETTAMENTE GESTITA,AMBULATORIO E LABORATORIO,45.846926,10.574433,45.846926,10.574433
STR042101082001S08,82001,42,101,TERME VAL RENDENA -  FONTE S. ANTONIO S.P.A.,1846020228.0,www.fontevalrendena.it,info@fontevalrendena.it,22029,CADERZONE TERME,VIA DAMIANO CHIESA  2,38080,465806069,0465806403,S08,ASSISTENZA IDROTERMALE,2,STRUTTURA NON DIRETTAMENTE GESTITA,ALTRO TIPO DI STRUTTURA TERRITORIALE,46.129975,10.756592,46.129975,10.756592
STR042101082101S09,82101,42,101,AZIENDA PUBBLICA SERVIZI ALLA PERSONA - RSA PINZOLO,1368700223.0,www.apsp-pinzolo.it,segreteria@apsp-pinzolo.it,22143,PINZOLO,VIA GENOVA  84,38086,465503665,0465503236,S09,ASSISTENZA AGLI ANZIANI,2,STRUTTURA NON DIRETTAMENTE GESTITA,STRUTTURA RESIDENZIALE,46.159175,10.76201,46.159175,10.76201
STR042101082102S01,82102,42,101,AZIENDA PUBBLICA SERVIZI ALLA PERSONA - RSA PINZOLO - AMB. FKT,1368700223.0,www.apsp-pinzolo.it,segreteria@apsp-pinzolo.it,22143,PINZOLO,VIA GENOVA  84,38086,465503665,0465503236,S01,ATTIVITA` CLINICA,2,STRUTTURA NON DIRETTAMENTE GESTITA,AMBULATORIO E LABORATORIO,46.159175,10.76201,46.159175,10.76201
STR042101091001S01,91001,42,101,POLIAMBULATORIO SPECIALISTICO,1429410226.0,www.apss.tn.it,stefania.rossi@apss.tn.it,22153,RIVA DEL GARDA,VIA ROSMINI  5/B,38066,464582729,0464582682,S01,ATTIVITA` CLINICA,1,STRUTTURA DIRETTAMENTE GESTITA,AMBULATORIO E LABORATORIO,45.890308,10.840401,45.890308,10.840401
STR042101091003S04,91003,42,101,CONSULTORIO RIVA DEL GARDA,1429410226.0,www.apss.tn.it,marina.bassetti@apss.tn.it,22153,RIVA DEL GARDA,VIA ROSMINI  5/B,38066,464582706,0464582695,S04,ATTIVITA` DI CONSULTORIO MATERNO-INFANTILE,1,STRUTTURA DIRETTAMENTE GESTITA,ALTRO TIPO DI STRUTTURA TERRITORIALE,45.890308,10.840401,45.890308,10.840401
STR042101091004S05,91004,42,101,COMUNITA' TERAPEUTICA RIABILITATIVA - VILLA ISCHIA,485050223.0,www.coop.mimosa.com,info@coopmimosa.com,22153,RIVA DEL GARDA,LOCALITA  ISCHIA  36,38066,464557177,0464556548,S05,ASSISTENZA PSICHIATRICA,1,STRUTTURA DIRETTAMENTE GESTITA,STRUTTURA RESIDENZIALE,10.849873,45.898443,10.849873,45.898443
STR042101091005S11,91005,42,101,COMUNITA' RESIDENZIALE - APP. SEMI PROTETTO - BOLOGNANO,1227430228.0,www.arcobalenocoop.org,arcobaleno@pop.ftcoop.it,22006,ARCO,VIALE ROVERETO  32   BOLOGNANO,38062,464531828,0464550953,S11,ASSISTENZA AI DISABILI PSICHICI,2,STRUTTURA NON DIRETTAMENTE GESTITA,STRUTTURA RESIDENZIALE,45.912966,10.897183,45.912966,10.897183
STR042101091101S01,91101,42,101,CASA DI CURA EREMO,681710224.0,www.eremoarco.it,info@eremoarco.it,22006,ARCO,VIA XXI APRILE  1,38062,464588666,0464588668,S01,ATTIVITA` CLINICA,2,STRUTTURA NON DIRETTAMENTE GESTITA,AMBULATORIO E LABORATORIO,45.919481,10.870444,45.919481,10.870444
STR042101091101S02,91101,42,101,CASA DI CURA EREMO,681710224.0,www.eremoarco.it,info@eremoarco.it,22006,ARCO,VIA XXI APRILE  1,38062,464588666,0464588668,S02,DIAGNOSTICA STRUMENTALE E PER IMMAGINI,2,STRUTTURA NON DIRETTAMENTE GESTITA,AMBULATORIO E LABORATORIO,45.919481,10.870444,45.919481,10.870444
STR042101091201S01,91201,42,101,PRESIDIO OSPEDALIERO ARCO,1429410226.0,www.apss.tn.it, ,22006,ARCO,VIA CAPITELLI  48,38062,464582774,0464582270,S01,ATTIVITA` CLINICA,1,STRUTTURA DIRETTAMENTE GESTITA,AMBULATORIO E LABORATORIO,45.9192,10.8741,45.9192,10.8741
STR042101091201S02,91201,42,101,PRESIDIO OSPEDALIERO ARCO,1429410226.0,www.apss.tn.it, ,22006,ARCO,VIA CAPITELLI  48,38062,464582774,0464582270,S02,DIAGNOSTICA STRUMENTALE E PER IMMAGINI,1,STRUTTURA DIRETTAMENTE GESTITA,AMBULATORIO E LABORATORIO,45.9192,10.8741,45.9192,10.8741
STR042101091201S03,91201,42,101,PRESIDIO OSPEDALIERO ARCO,1429410226.0,www.apss.tn.it, ,22006,ARCO,VIA CAPITELLI  48,38062,464582774,0464582270,S03,ATTIVITA` DI LABORATORIO,1,STRUTTURA DIRETTAMENTE GESTITA,AMBULATORIO E LABORATORIO,45.9192,10.8741,45.9192,10.8741
STR042101091202S01,91202,42,101,CENTRO DIALISI ARCO,1429410226.0,www.apss.tn.it, ,22006,ARCO,VIA CAPITELLI  48,38062,464582294,0464582209,S01,ATTIVITA` CLINICA,1,STRUTTURA DIRETTAMENTE GESTITA,ALTRO TIPO DI STRUTTURA TERRITORIALE,45.9192,10.8741,45.9192,10.8741
STR042101091301S01,91301,42,101,IST.RIAB.S.STEFANO-U.O. OSP. S.PANCRAZIO,251460127.0,www.ospedalesanpancrazio.it,info@ospedalesanpancrazio.it,22006,ARCO,VIA DAMIANO CHIESA  2,38062,464586200,0464586298,S01,ATTIVITA` CLINICA,2,STRUTTURA NON DIRETTAMENTE GESTITA,AMBULATORIO E LABORATORIO,45.921304,10.882587,45.921304,10.882587
STR042101091401S05,91401,42,101,CENTRO SALUTE MENTALE ARCO,1429410226.0,www.apss.tn.it,csm@arc.apss.tn.it,22006,ARCO,LARGO ARCIDUCA ALBERTO D ASBURGO  1,38062,464582280,0464582396,S05,ASSISTENZA PSICHIATRICA,1,STRUTTURA DIRETTAMENTE GESTITA,ALTRO TIPO DI STRUTTURA TERRITORIALE,45.918763,10.882606,45.918763,10.882606
STR042101092000S09,92000,42,101,AZIENDA PUBBLICA SERVIZI ALLA PERSONA - RSA BEZZECCA,951530229.0,www.apspgiacomocis.it,segreteria@apspgiacomocis.it,22229,LEDRO,VIA G  CIS  45  BEZZECCA,38060,464591042,0464591414,S09,ASSISTENZA AGLI ANZIANI,2,STRUTTURA NON DIRETTAMENTE GESTITA,STRUTTURA RESIDENZIALE,45.917721,10.715561,45.917721,10.715561
STR042101092001S09,92001,42,101,CENTRO DIURNO PER ANZIANI - BEZZECCA,951530229.0, , ,22229,LEDRO,VIA G CIS   LOC  BEZZECCA  47,38067,464591042,0464591414,S09,ASSISTENZA AGLI ANZIANI,2,STRUTTURA NON DIRETTAMENTE GESTITA,STRUTTURA SEMIRESIDENZIALE,45.893867,10.722764,45.893867,10.722764
STR042101092100S09,92100,42,101,AZIENDA PUBBLICA SERVIZI ALLA PERSONA - RSA RIVA DEL GARDA,589730225.0,www.csarivadelgarda.it,info@csarivadelgarda.it,22153,RIVA DEL GARDA,VIA ARDARO  20/A RIVA DEL GARDA,38066,464554280,0464556420,S09,ASSISTENZA AGLI ANZIANI,2,STRUTTURA NON DIRETTAMENTE GESTITA,STRUTTURA RESIDENZIALE,45.892039,10.841589,45.892039,10.841589
STR042101092101S09,92101,42,101,CENTRO DIURNO PER ANZIANI - RIVA,2086810229.0, ,info@csarivadelgarda.it,22153,RIVA DEL GARDA,VIA ARDARO  20/A,38066,464554280,0464556420,S09,ASSISTENZA AGLI ANZIANI,2,STRUTTURA NON DIRETTAMENTE GESTITA,STRUTTURA SEMIRESIDENZIALE,45.892039,10.841589,45.892039,10.841589
STR042101092200S09,92200,42,101,AZIENDA PUBBLICA SERVIZI ALLA PERSONA - RSA DRO,516770229.0,www.residenzamolino.it,info@residenzamolino.it,22079,DRO,VIA MOLINO  9,38074,464504325,0464504690,S09,ASSISTENZA AGLI ANZIANI,2,STRUTTURA NON DIRETTAMENTE GESTITA,STRUTTURA RESIDENZIALE,45.962229,10.913738,45.962229,10.913738
STR042101092300S09,92300,42,101,AZIENDA PUBBLICA SERVIZI ALLA PERSONA - RSA ARCO,503560229.0,www.fcda.it,info@fcda.it,22006,ARCO,VIA STRAPPAZOCCHE  18,38062,464532032,0464518387,S09,ASSISTENZA AGLI ANZIANI,2,STRUTTURA NON DIRETTAMENTE GESTITA,STRUTTURA RESIDENZIALE,45.917956,10.879609,45.917956,10.879609
STR042101092301S09,92301,42,101,CENTRO DIURNO PER ANZIANI - ARCO,503560229.0, ,info@feda.it,22006,ARCO,VIA STRAPPAZOCCHE  18,38062,464532032,0464518387,S09,ASSISTENZA AGLI ANZIANI,2,STRUTTURA NON DIRETTAMENTE GESTITA,STRUTTURA SEMIRESIDENZIALE,45.917956,10.879609,45.917956,10.879609
STR042101092500S09,92500,42,101,RSA PICCOLE SUORE S.FAMIGLIA - ARCO,427050232.0,www.pssf.it,sacrafamigliaarco@pssf.it,22006,ARCO,VIA NAS  4,38062,464586100,0464532172,S09,ASSISTENZA AGLI ANZIANI,2,STRUTTURA NON DIRETTAMENTE GESTITA,STRUTTURA RESIDENZIALE,45.917617,10.876268,45.917617,10.876268
STR042101100101S01,100101,42,101,PRESIDIO OSPEDALIERO S.MARIA DEL CARMINE,1429410226.0,www.apss.tn.it, ,22161,ROVERETO,CORSO VERONA  4,38068,464403218,0464404523,S01,ATTIVITA` CLINICA,1,STRUTTURA DIRETTAMENTE GESTITA,AMBULATORIO E LABORATORIO,45.8818,11.0407,45.8818,11.0407
STR042101100101S02,100101,42,101,PRESIDIO OSPEDALIERO S.MARIA DEL CARMINE,1429410226.0,www.apss.tn.it, ,22161,ROVERETO,CORSO VERONA  4,38068,464403218,0464404523,S02,DIAGNOSTICA STRUMENTALE E PER IMMAGINI,1,STRUTTURA DIRETTAMENTE GESTITA,AMBULATORIO E LABORATORIO,45.8818,11.0407,45.8818,11.0407
STR042101100101S03,100101,42,101,PRESIDIO OSPEDALIERO S.MARIA DEL CARMINE,1429410226.0,www.apss.tn.it, ,22161,ROVERETO,CORSO VERONA  4,38068,464403218,0464404523,S03,ATTIVITA` DI LABORATORIO,1,STRUTTURA DIRETTAMENTE GESTITA,AMBULATORIO E LABORATORIO,45.8818,11.0407,45.8818,11.0407
STR042101100102S05,100102,42,101,CENTRO SALUTE MENTALE ROVERETO,1429410226.0,www.apss.tn.it,alfredo.vivaldelli@apss.tn.it,22161,ROVERETO,P ZZALE S MARIA  6,38068,464403531,0464433612,S05,ASSISTENZA PSICHIATRICA,1,STRUTTURA DIRETTAMENTE GESTITA,ALTRO TIPO DI STRUTTURA TERRITORIALE,45.883398,11.042005,45.883398,11.042005
STR042101100103S01,100103,42,101,CENTRO DIALISI ROVERETO,1429410226.0,www.apss.tn.it, ,22161,ROVERETO,CORSO VERONA  4,38068,464403541,0464403209,S01,ATTIVITA` CLINICA,1,STRUTTURA DIRETTAMENTE GESTITA,ALTRO TIPO DI STRUTTURA TERRITORIALE,45.8818,11.0407,45.8818,11.0407
STR042101100104S05,100104,42,101,CENTRO DIURNO PSICHIATRICO ROVERETO,1429410226.0,www.apss.tn.it,alfredo.vivaldelli@apss.tn.it,22161,ROVERETO,PIAZZALE S MARIA  6,38068,464403531,0464433612,S05,ASSISTENZA PSICHIATRICA,1,STRUTTURA DIRETTAMENTE GESTITA,STRUTTURA SEMIRESIDENZIALE,45.883398,11.042005,45.883398,11.042005
STR042101100105S05,100105,42,101,GRUPPO APPARTAMENTO PROTETTO ROVERETO,nan,www.apss.tn.it, ,22161,ROVERETO,VIA BENACENSE  17,38068,464422944, ,S05,ASSISTENZA PSICHIATRICA,1,STRUTTURA DIRETTAMENTE GESTITA,STRUTTURA RESIDENZIALE,45.8822992,11.0387709,45.8822992,11.0387709
STR042101100106S01,100106,42,101,NEUROPSICHIATRIA INFANTILE - UONPI 2,1429410226.0,www.apss.tn.it,npi.rovereto@apss.tn.it,22161,ROVERETO,PIAZZALE S MARIA  6,38068,464403523,0464403516,S01,ATTIVITA` CLINICA,1,STRUTTURA DIRETTAMENTE GESTITA,ALTRO TIPO DI STRUTTURA TERRITORIALE,45.883398,11.042005,45.883398,11.042005
STR042101100107S01,100107,42,101,UNITA' OPERATIVA N.2 DI PSICOLOGIA,1429410226.0,www.apss.tn.it,giuseppe.vivaldelli@apss.tn.it,22161,ROVERETO,P ZZA LEONI  11/A,38068,464403735,0464403748,S01,ATTIVITA` CLINICA,1,STRUTTURA DIRETTAMENTE GESTITA,ALTRO TIPO DI STRUTTURA TERRITORIALE,45.887888,11.038134,45.887888,11.038134
STR042101100108S09,100108,42,101,CENTRO DIURNO PER ANZIANI - LA CASA - ROVERETO,1186250229.0, ,federica.dallaporta@cooplacasa.it,22161,ROVERETO,VIA S MARIA  95,38068,3466120400,0464490125,S09,ASSISTENZA AGLI ANZIANI,2,STRUTTURA NON DIRETTAMENTE GESTITA,STRUTTURA SEMIRESIDENZIALE,45.884757,11.04349,45.884757,11.04349
STR042101100201S01,100201,42,101,PRESIDIO OSPEDALIERO DI ALA,1429410226.0,www.apss.tn.it,silvano.zanoni@apss.tn.it,22001,ALA,PIAZZA S GIOVANNI XXIII  13,38061,464675856,0464675860,S01,ATTIVITA` CLINICA,1,STRUTTURA DIRETTAMENTE GESTITA,AMBULATORIO E LABORATORIO,45.756172,11.000795,45.756172,11.000795
STR042101100201S02,100201,42,101,PRESIDIO OSPEDALIERO DI ALA,1429410226.0,www.apss.tn.it,silvano.zanoni@apss.tn.it,22001,ALA,PIAZZA S GIOVANNI XXIII  13,38061,464675856,0464675860,S02,DIAGNOSTICA STRUMENTALE E PER IMMAGINI,1,STRUTTURA DIRETTAMENTE GESTITA,AMBULATORIO E LABORATORIO,45.756172,11.000795,45.756172,11.000795
STR042101100201S03,100201,42,101,PRESIDIO OSPEDALIERO DI ALA,1429410226.0,www.apss.tn.it,silvano.zanoni@apss.tn.it,22001,ALA,PIAZZA S GIOVANNI XXIII  13,38061,464675856,0464675860,S03,ATTIVITA` DI LABORATORIO,1,STRUTTURA DIRETTAMENTE GESTITA,AMBULATORIO E LABORATORIO,45.756172,11.000795,45.756172,11.000795
STR042101100202S05,100202,42,101,COMUNITA' TERAPEUTICA RESIDENZIALE ALA,1429410226.0,www.apss.tn.it, ,22001,ALA,PIAZZA GIOVANNI XXIII  13,38061,464675851, ,S05,ASSISTENZA PSICHIATRICA,1,STRUTTURA DIRETTAMENTE GESTITA,STRUTTURA RESIDENZIALE,45.756172,11.000795,45.756172,11.000795
STR042101100205S09,100205,42,101,CENTRO DIURNO PER ANZIANI - ALA,2206530228.0, ,servizio.sociale@comunitàdellavallagarina.tn.it,22001,ALA,PIAZZA GIOVANNI XXIII  2 4,38061,464484252,0464498063,S09,ASSISTENZA AGLI ANZIANI,2,STRUTTURA NON DIRETTAMENTE GESTITA,STRUTTURA SEMIRESIDENZIALE,45.7568166,11.0013118,45.7568166,11.0013118
STR042101100301S01,100301,42,101,CERIN (CENTRO RIABILITAZIONE NEUROCOGNITIVA),340520220.0,http://portale.unitn.it/centre/cimec/cerin.htm,cerin@cimec.unitn.it,22161,ROVERETO,VIA  MATTEO DEL BEN  5,38060,464808152,0464808150,S01,ATTIVITA` CLINICA,2,STRUTTURA NON DIRETTAMENTE GESTITA,AMBULATORIO E LABORATORIO,45.892397,11.03569,45.892397,11.03569
STR042101100701S01,100701,42,101,CASA DI CURA SOLATRIX S.P.A.,311150221.0,www.casadicurasolatrix.it,info@casadicurasolatrix.it,22161,ROVERETO,VIA BELLINI  11,38068,464491111,0464491345,S01,ATTIVITA` CLINICA,2,STRUTTURA NON DIRETTAMENTE GESTITA,AMBULATORIO E LABORATORIO,45.898984,11.045548,45.898984,11.045548
STR042101100701S02,100701,42,101,CASA DI CURA SOLATRIX S.P.A.,311150221.0,www.casadicurasolatrix.it,info@casadicurasolatrix.it,22161,ROVERETO,VIA BELLINI  11,38068,464491111,0464491345,S02,DIAGNOSTICA STRUMENTALE E PER IMMAGINI,2,STRUTTURA NON DIRETTAMENTE GESTITA,AMBULATORIO E LABORATORIO,45.898984,11.045548,45.898984,11.045548
STR042101100701S03,100701,42,101,CASA DI CURA SOLATRIX S.P.A.,311150221.0,www.casadicurasolatrix.it,info@casadicurasolatrix.it,22161,ROVERETO,VIA BELLINI  11,38068,464491111,0464491345,S03,ATTIVITA` DI LABORATORIO,2,STRUTTURA NON DIRETTAMENTE GESTITA,AMBULATORIO E LABORATORIO,45.898984,11.045548,45.898984,11.045548
STR042101100702S09,100702,42,101,RSAO SOLATRIX,311150221.0,www.casadicurasolatrix.it,info@casadicurasolatrix.it,22161,ROVERETO,VIA BELLINI  11,38068,464491111,0464491345,S09,ASSISTENZA AGLI ANZIANI,2,STRUTTURA NON DIRETTAMENTE GESTITA,STRUTTURA RESIDENZIALE,45.898984,11.045548,45.898984,11.045548
STR042101100703S09,100703,42,101,RSA SOLATRIX - ST GESTIONI SOC.COOP. SOC.,1886630225.0,www.gruppospes.it,info@gruppospes.it,22161,ROVERETO,VIA BELLINI  11,38068,464025511,0461402065,S09,ASSISTENZA AGLI ANZIANI,2,STRUTTURA NON DIRETTAMENTE GESTITA,STRUTTURA RESIDENZIALE,45.898984,11.045548,45.898984,11.045548
STR042101100801S01,100801,42,101,POLIAMBULATORIO ROVERETO,1429410226.0,www.apss.tn.it,silvano.zanoni@apss.tn.it,22161,ROVERETO,VIA S GIOVANNI BOSCO  6,38068,464403631,0464403621,S01,ATTIVITA` CLINICA,1,STRUTTURA DIRETTAMENTE GESTITA,AMBULATORIO E LABORATORIO,45.892086,11.041274,45.892086,11.041274
STR042101100801S02,100801,42,101,POLIAMBULATORIO ROVERETO,1429410226.0,www.apss.tn.it,silvano.zanoni@apss.tn.it,22161,ROVERETO,VIA S GIOVANNI BOSCO  6,38068,464403631,0464403621,S02,DIAGNOSTICA STRUMENTALE E PER IMMAGINI,1,STRUTTURA DIRETTAMENTE GESTITA,AMBULATORIO E LABORATORIO,45.892086,11.041274,45.892086,11.041274
STR042101100802S04,100802,42,101,CONSULTORIO FAMILIARE ROVERETO,1429410226.0,www.apss.tn.it, ,22161,ROVERETO,VIA S  GIOVANNI BOSCO  6,38068,464403675,0464403623,S04,ATTIVITA` DI CONSULTORIO MATERNO-INFANTILE,1,STRUTTURA DIRETTAMENTE GESTITA,ALTRO TIPO DI STRUTTURA TERRITORIALE,45.892086,11.041274,45.892086,11.041274
STR042101100803S03,100803,42,101,MAGI'S LAB S.R.L.,2031100221.0,www.magi-lab.it,management@assomagi.org,22161,ROVERETO,VIA MAIOLICHE  57,38068,464425634,0464425634,S03,ATTIVITA` DI LABORATORIO,2,STRUTTURA NON DIRETTAMENTE GESTITA,AMBULATORIO E LABORATORIO,11.033921,45.882557,11.033921,45.882557
STR042101100900S11,100900,42,101,VILLA MARIA - COOP SOC. -CENTRO RESIDENZIALE DISABILI - LENZIMA,1456720224.0,www.coopvillamaria.it,segreteria@coopvillamaria.it,22098,ISERA,PIAZZA S  MARTINO  2   LENZIMA,38060,464439060,0464421603,S11,ASSISTENZA AI DISABILI PSICHICI,2,STRUTTURA NON DIRETTAMENTE GESTITA,STRUTTURA RESIDENZIALE,10.992596,45.87862,10.992596,45.87862
STR042101100901S06,100901,42,101,ASSOCIAZIONE 'VOCE AMICA' O.N.L.U.S.,1376950224.0, ,voceamicatn@libero.it,22222,VILLA LAGARINA,VIA GIARDINI  34,38060,464413736,0464499287,S06,ASSISTENZA PER TOSSICODIPENDENTI,2,STRUTTURA NON DIRETTAMENTE GESTITA,STRUTTURA RESIDENZIALE,45.921786,11.032979,45.921786,11.032979
STR042101100903S06,100903,42,101,ASSOCIAZIONE TRENTINA NUOVI ORIZZONTI ONLUS,94031290227.0,www.nuoviorizzonti.org,nuoviorizzonti.tn@gmail.com,22222,VILLA LAGARINA,LOCALITÀ BELLARIA DI CEI,38060,464800002,0464800002,S06,ASSISTENZA PER TOSSICODIPENDENTI,2,STRUTTURA NON DIRETTAMENTE GESTITA,STRUTTURA RESIDENZIALE,45.95753,11.032133,45.95753,11.032133
STR042101100905S11,100905,42,101,COMUNITA' RESIDENZIALE TEMPORANEA GIRASOLE - ROVERETO,1085050225.0,www.coopgirasole.org,com.residenziale@coopgirasole.org,22161,ROVERETO,VIA FLAIM  3,38068,464437209,0464438914,S11,ASSISTENZA AI DISABILI PSICHICI,2,STRUTTURA NON DIRETTAMENTE GESTITA,STRUTTURA RESIDENZIALE,45.887377,11.039317,45.887377,11.039317
STR042101100906S11,100906,42,101,CENTRO DIURNO SOCIO RIAB. PER DISABILI AUTISMO - AGSAT - TRENTO,1915050221.0, ,info@agsat.org,22205,TRENTO,VIA PALAZZINE   MASO ZANCANELLA,38121,461427544,0461427544,S11,ASSISTENZA AI DISABILI PSICHICI,2,STRUTTURA NON DIRETTAMENTE GESTITA,STRUTTURA SEMIRESIDENZIALE,45.87848,11.033609,45.87848,11.033609
STR042101103001S09,103001,42,101,AZIENDA PUBBLICA SERVIZI ALLA PERSONA - RSA ROVERETO VIA VANNETTI,324870229.0,www.apspvannetti.it,info@apspvannetti.it,22161,ROVERETO,VIA VANNETTI  6,38068,464455000,0464455010,S09,ASSISTENZA AGLI ANZIANI,2,STRUTTURA NON DIRETTAMENTE GESTITA,STRUTTURA RESIDENZIALE,45.889996,11.036813,45.889996,11.036813
STR042101103002S09,103002,42,101,AZIENDA PUBBLICA SERVIZI ALLA PERSONA - RSA ROVERETO VIA FEDRIGOTTI,2086700222.0,www.apspvannetti.it,info@apspvannetti.it,22161,ROVERETO,VIA FEDRIGOTTI  7,38068,464406401,0464455010,S09,ASSISTENZA AGLI ANZIANI,2,STRUTTURA NON DIRETTAMENTE GESTITA,STRUTTURA RESIDENZIALE,45.887021,11.019874,45.887021,11.019874
STR042101103003S09,103003,42,101,CENTRO DIURNO PER ANZIANI - VANNETTI - ROVERETO,2086700222.0, ,massimiliano.colombo@apspvannetti.it,22161,ROVERETO,VIA VANNETTI  2,38068,464455006,0464455010,S09,ASSISTENZA AGLI ANZIANI,2,STRUTTURA NON DIRETTAMENTE GESTITA,STRUTTURA SEMIRESIDENZIALE,45.889826,11.037437,45.889826,11.037437
STR042101103101S09,103101,42,101,AZIENDA PUBBLICA SERVIZI ALLA PERSONA - RSA MORI,323360222.0,www.apsp-cesarebenedetti.it,segreteria@apsp-cesarebenedetti.it,22123,MORI,VIA DEL GARDA  62,38065,464918152,0464918566,S09,ASSISTENZA AGLI ANZIANI,2,STRUTTURA NON DIRETTAMENTE GESTITA,STRUTTURA RESIDENZIALE,45.868975,10.964928,45.868975,10.964928
STR042101103102S09,103102,42,101,CENTRO DIURNO PER ANZIANI - MORI,323360222.0, ,direttore@apsp-cesarebenedetti.it,22123,MORI,VIA DEL GARDA  54,38065,464918152,0464918566,S09,ASSISTENZA AGLI ANZIANI,2,STRUTTURA NON DIRETTAMENTE GESTITA,STRUTTURA SEMIRESIDENZIALE,45.868975,10.964928,45.868975,10.964928
STR042101103103S12,103103,42,101,HOSPICE MORI,323360222.0,www.apsp-cesarebenedetti.it,segreteria@apsp-cesarebenedetti.it,22123,MORI,VIA DEL GARDA  54,38065,464918152,0464918566,S12,ASSISTENZA AI MALATI TERMINALI,2,STRUTTURA NON DIRETTAMENTE GESTITA,STRUTTURA RESIDENZIALE,45.868975,10.964928,45.868975,10.964928
STR042101103105S11,103105,42,101,COMUNITA' RESIDENZIALE TEMPORANEA VILLA ARGIA - MORI,476340229.0, ,info@villaargia@libero.it,22123,MORI,VIA DEL GARDA  101,38065,464917116,0464917116,S11,ASSISTENZA AI DISABILI PSICHICI,2,STRUTTURA NON DIRETTAMENTE GESTITA,STRUTTURA RESIDENZIALE,45.853533,10.963059,45.853533,10.963059
STR042101103201S09,103201,42,101,AZIENDA PUBBLICA SERVIZI ALLA PERSONA - RSA FOLGARIA,493060222.0,www.casalaner.it,amministrazione@casalaner.it,22087,FOLGARIA,VIA PAPA GIOVANNI XXIII  1,38064,464721174,0464721174,S09,ASSISTENZA AGLI ANZIANI,2,STRUTTURA NON DIRETTAMENTE GESTITA,STRUTTURA RESIDENZIALE,45.919513,11.167603,45.919513,11.167603
STR042101103202S01,103202,42,101,AZIENDA PUBBLICA SERVIZI ALLA PERSONA - RSA FOLGARIA - ANB. FKT,493060223.0,www.casalaner.it,amministrazione@casalaner.it,22087,FOLGARIA,VIA P  GIOVANNI XXIII  1,38064,464721174,0464723442,S01,ATTIVITA` CLINICA,2,STRUTTURA NON DIRETTAMENTE GESTITA,AMBULATORIO E LABORATORIO,45.919513,11.167603,45.919513,11.167603
STR042101103203S09,103203,42,101,CENTRO DIURNO PER ANZIANI - FOLGARIA,493060222.0, ,amministrazione@casalaner.it,22087,FOLGARIA,VIA PAPA GIOVANNI XXIII  1,38064,464721174,0464723442,S09,ASSISTENZA AGLI ANZIANI,2,STRUTTURA NON DIRETTAMENTE GESTITA,STRUTTURA SEMIRESIDENZIALE,45.914805,11.1648721,45.914805,11.1648721
STR042101103301S09,103301,42,101,AZIENDA PUBBLICA SERVIZI ALLA PERSONA - RSA BRENTONICO,382550226.0,www.apspbrentonico.it,info@apspbrentonico.it,22025,BRENTONICO,VIA BALISTA  7 BRENTONICO,38060,464395332,0464395757,S09,ASSISTENZA AGLI ANZIANI,2,STRUTTURA NON DIRETTAMENTE GESTITA,STRUTTURA RESIDENZIALE,45.817434,10.95871,45.817434,10.95871
STR042101103302S01,103302,42,101,AZIENDA PUBBLICA SERVIZI ALLA PERSONA - RSA BRENTONICO - AMB. FKT,382550226.0,www.apspbrentonico.it,info@apspbrentonico.it,22025,BRENTONICO,VIA BALISTA  7,38060,464395332,0464395757,S01,ATTIVITA` CLINICA,2,STRUTTURA NON DIRETTAMENTE GESTITA,AMBULATORIO E LABORATORIO,45.817434,10.95871,45.817434,10.95871
STR042101103303S09,103303,42,101,CENTRO DIURNO PER ANZIANI - BRENTONICO,382550226.0, ,direttore@apspbrentonico.it,22025,BRENTONICO,VIA BALISTA  7,38060,464395332,0464395757,S09,ASSISTENZA AGLI ANZIANI,2,STRUTTURA NON DIRETTAMENTE GESTITA,STRUTTURA SEMIRESIDENZIALE,45.817434,10.95871,45.817434,10.95871
STR042101103401S09,103401,42,101,AZIENDA PUBBLICA SERVIZI ALLA PERSONA - RSA AVIO,1124240225.0,www.apspavio.it,amministrazione@apspavio.it,22007,AVIO,VIA CAMPAGNOLA  5,38063,464688011,0464688193,S09,ASSISTENZA AGLI ANZIANI,2,STRUTTURA NON DIRETTAMENTE GESTITA,STRUTTURA RESIDENZIALE,45.733699,10.937465,45.733699,10.937465
STR042101103402S09,103402,42,101,CENTRO DIURNO PER ANZIANI - AVIO,1124240225.0, ,direttore@apspavio.it,22007,AVIO,VIA CAMPAGNOLA  5,38063,464688023,0464688193,S09,ASSISTENZA AGLI ANZIANI,2,STRUTTURA NON DIRETTAMENTE GESTITA,STRUTTURA SEMIRESIDENZIALE,45.733699,10.937465,45.733699,10.937465
STR042101103501S09,103501,42,101,AZIENDA PUBBLICA SERVIZI ALLA PERSONA - RSA NOMI,338730229.0,www.operaromani.it,info@operaromani.it,22128,NOMI,VIA ROMA  21,38060,464839325,0464839434,S09,ASSISTENZA AGLI ANZIANI,2,STRUTTURA NON DIRETTAMENTE GESTITA,STRUTTURA RESIDENZIALE,45.9295,11.0729,45.9295,11.0729
STR042101103502S09,103502,42,101,CENTRO DIURNO PER ANZIANI - NOMI,338730229.0, ,info@operaromani.it,22128,NOMI,VIA ROMA  21,38060,464839422,0464839434,S09,ASSISTENZA AGLI ANZIANI,2,STRUTTURA NON DIRETTAMENTE GESTITA,STRUTTURA SEMIRESIDENZIALE,45.9295,11.0729,45.9295,11.0729
STR042101103601S09,103601,42,101,RSA PICCOLE SUORE S.FAMIGLIA - ROVERETO,427050232.0,www.pssf.it,casasacrafamiglia.rovereto@pssf.it,22161,ROVERETO,VIA SAIBANTI 6/B,38068,464430021,0464438374,S09,ASSISTENZA AGLI ANZIANI,2,STRUTTURA NON DIRETTAMENTE GESTITA,STRUTTURA RESIDENZIALE,45.939691,11.049042,45.939691,11.049042
STR042101103602S09,103602,42,101,CENTRO DIURNO ALZHEIMER - ROVERETO,427050232.0, ,casasacrafamiglia.rovereto@pssf,22161,ROVERETO,VIA SAIBANTI  6/B,38068,464430021,0464438374,S09,ASSISTENZA AGLI ANZIANI,2,STRUTTURA NON DIRETTAMENTE GESTITA,STRUTTURA SEMIRESIDENZIALE,45.939691,11.049042,45.939691,11.049042
STR042101103701S09,103701,42,101,AZIENDA PUBBLICA SERVIZI ALLA PERSONA - RSA VALLARSA,516590221.0,www.apspvallarsa.it,csa.vallarsa@tin.it,22210,VALLARSA,FRAZIONE CORTE  1,38060,464869145,0464869145,S09,ASSISTENZA AGLI ANZIANI,2,STRUTTURA NON DIRETTAMENTE GESTITA,STRUTTURA RESIDENZIALE,45.782714,11.11413,45.782714,11.11413
STR042101103702S01,103702,42,101,AZIENDA PUBBLICA SERVIZI ALLA PERSONA - RSA VALLARSA - AMB. FKT,516590221.0, ,csa.vallarsa@tin.it,22210,VALLARSA,FRAZIONE CORTE  1,38060,464869145,0464869145,S01,ATTIVITA` CLINICA,2,STRUTTURA NON DIRETTAMENTE GESTITA,AMBULATORIO E LABORATORIO,45.782714,11.11413,45.782714,11.11413
STR042101110101S01,110101,42,101,DISTRETTO LADINO DI FASSA-POLIAMBULATORIO POZZA DI FASSA,1429410226.0,www.apss.tn.it,marisa.murer@apss.tn.it,22145,POZZA DI FASSA,STRADA DI PRÉ DE GEJIA  4,38036,462761000,0462761042,S01,ATTIVITA` CLINICA,1,STRUTTURA DIRETTAMENTE GESTITA,AMBULATORIO E LABORATORIO,46.423312,11.678813,46.423312,11.678813
STR042101110102S09,110102,42,101,AZIENDA PUBBLICA SERVIZI ALLA PERSONA - RSA VIGO DI FASSA,964540223.0,www.apspfassa.it,info@apspfassa.it,22217,VIGO DI FASSA,STRADA DI PRÈ DE LEJIA  12,38039,462760240,0462760249,S09,ASSISTENZA AGLI ANZIANI,2,STRUTTURA NON DIRETTAMENTE GESTITA,STRUTTURA RESIDENZIALE,46.422655,11.678591,46.422655,11.678591
STR042101110211S08,110211,42,101,SOCIETA' TERME DOLOMIA S.R.L.,1167750221.0,www.termedolomia.it,info@termedolomia.it,22145,POZZA DI FASSA,STRADA DOLOMITES  58,38036,462762567,0462763232,S08,ASSISTENZA IDROTERMALE,2,STRUTTURA NON DIRETTAMENTE GESTITA,ALTRO TIPO DI STRUTTURA TERRITORIALE,46.423947,11.686748,46.423947,11.686748
